city,state_id,state_name,lat,lng
South Creek,WA,Washington,46.9994,-122.3921
Roslyn,WA,Washington,47.2507,-121.0989
Sprague,WA,Washington,47.3048,-117.9713
Gig Harbor,WA,Washington,47.3352,-122.5968
Lake Cassidy,WA,Washington,48.0639,-122.092
Tenino,WA,Washington,46.8537,-122.8607
Jamestown,WA,Washington,48.1229,-123.0911
Three Lakes,WA,Washington,47.942,-121.9924
Curlew Lake,WA,Washington,48.7311,-118.6663
Chain Lake,WA,Washington,47.9038,-121.9861
Pateros,WA,Washington,48.0536,-119.8994
Rosburg,WA,Washington,46.3076,-123.6344
Parkland,WA,Washington,47.1417,-122.4376
Birch Bay,WA,Washington,48.923,-122.7543
Ashford,WA,Washington,46.7537,-122.0113
Navy Yard City,WA,Washington,47.5508,-122.6655
Omak,WA,Washington,48.4228,-119.5159
Farmington,WA,Washington,47.0887,-117.0464
Buckley,WA,Washington,47.1615,-122.02
Cathcart,WA,Washington,47.8525,-122.1058
Poulsbo,WA,Washington,47.7417,-122.6408
Anacortes,WA,Washington,48.4878,-122.6292
Maplewood,WA,Washington,47.3715,-122.5689
Creston,WA,Washington,47.7595,-118.52
Rockford,WA,Washington,47.4513,-117.1307
Wishram,WA,Washington,45.6599,-120.9698
Centralia,WA,Washington,46.7225,-122.9695
South Hill,WA,Washington,47.1203,-122.2848
Longview Heights,WA,Washington,46.1796,-122.9577
Erlands Point-Kitsap Lake,WA,Washington,47.5973,-122.7021
Amboy,WA,Washington,45.9122,-122.4795
St. John,WA,Washington,47.0915,-117.5887
Dallesport,WA,Washington,45.6316,-121.1749
Ketron Island,WA,Washington,47.1569,-122.6343
Mesa,WA,Washington,46.5737,-119.0013
Fife,WA,Washington,47.2328,-122.3518
Moses Lake North,WA,Washington,47.1949,-119.3186
Chewelah,WA,Washington,48.2929,-117.7336
Grayland,WA,Washington,46.8304,-124.0898
Kittitas,WA,Washington,46.9837,-120.4191
Camano,WA,Washington,48.1865,-122.4708
Monroe North,WA,Washington,47.883,-121.9882
North Bonneville,WA,Washington,45.6425,-121.9689
Klickitat,WA,Washington,45.818,-121.1626
Loon Lake,WA,Washington,48.0685,-117.6298
Newport,WA,Washington,48.1788,-117.0545
Mead,WA,Washington,47.7795,-117.35
Cashmere,WA,Washington,47.5175,-120.4671
Aberdeen Gardens,WA,Washington,47.0587,-123.7791
Ocean Shores,WA,Washington,46.9685,-124.1521
Basin City,WA,Washington,46.5891,-119.1567
Wilkeson,WA,Washington,47.1034,-122.0495
Meadow Glade,WA,Washington,45.7524,-122.5614
Arlington Heights,WA,Washington,48.2119,-122.063
Uniontown,WA,Washington,46.5391,-117.0861
Oakesdale,WA,Washington,47.1305,-117.2465
West Side Highway,WA,Washington,46.1841,-122.9178
Conconully,WA,Washington,48.5571,-119.7513
Latah,WA,Washington,47.2822,-117.1557
Elma,WA,Washington,47.0055,-123.4112
Tieton,WA,Washington,46.7026,-120.756
Southworth,WA,Washington,47.5126,-122.5298
Danville,WA,Washington,48.9938,-118.5068
Toppenish,WA,Washington,46.3807,-120.3125
River Road,WA,Washington,48.0677,-123.1276
Geneva,WA,Washington,48.7461,-122.4064
Yakima,WA,Washington,46.5923,-120.5496
Moxee,WA,Washington,46.5638,-120.3968
Edmonds,WA,Washington,47.8114,-122.3533
Kalama,WA,Washington,46.0171,-122.8393
Laurier,WA,Washington,48.9974,-118.2248
Vashon,WA,Washington,47.4122,-122.4726
Country Homes,WA,Washington,47.7478,-117.4197
Darrington,WA,Washington,48.2546,-121.6029
Metaline Falls,WA,Washington,48.8616,-117.3706
Lyle,WA,Washington,45.6956,-121.2805
Cascade Valley,WA,Washington,47.1371,-119.3272
Spangle,WA,Washington,47.4299,-117.3812
Methow,WA,Washington,48.1289,-120.0056
Waterville,WA,Washington,47.648,-120.0707
Lake Roesiger,WA,Washington,47.9839,-121.9129
Milton,WA,Washington,47.2522,-122.3154
Krupp,WA,Washington,47.4105,-118.9886
Alderton,WA,Washington,47.1718,-122.2192
DuPont,WA,Washington,47.1079,-122.6496
Edgewood,WA,Washington,47.2309,-122.2832
North Puyallup,WA,Washington,47.2015,-122.2742
Pacific Beach,WA,Washington,47.215,-124.1967
Manson,WA,Washington,47.8858,-120.1563
Brewster,WA,Washington,48.1034,-119.7751
Battle Ground,WA,Washington,45.7764,-122.5413
Shoreline,WA,Washington,47.7564,-122.3426
Cosmopolis,WA,Washington,46.9541,-123.7725
Airway Heights,WA,Washington,47.6459,-117.5792
Grandview,WA,Washington,46.2431,-119.9084
Inchelium,WA,Washington,48.3378,-118.2372
Grand Coulee,WA,Washington,47.9391,-119.0031
Union,WA,Washington,47.3475,-123.0952
Torboy,WA,Washington,48.6772,-118.6689
Kelso,WA,Washington,46.1248,-122.8909
Westport,WA,Washington,46.8919,-124.112
Junction City,WA,Washington,46.9713,-123.7651
Lake Ketchum,WA,Washington,48.282,-122.348
West Pasco,WA,Washington,46.2497,-119.1684
Des Moines,WA,Washington,47.3914,-122.3154
Davenport,WA,Washington,47.6551,-118.1519
Seattle,WA,Washington,47.6211,-122.3244
Lake Stickney,WA,Washington,47.8709,-122.2596
Carnation,WA,Washington,47.6446,-121.9048
Everett,WA,Washington,47.9524,-122.167
Warden,WA,Washington,46.9674,-119.0522
Palouse,WA,Washington,46.9103,-117.0751
Terrace Heights,WA,Washington,46.6024,-120.4482
Clarkston,WA,Washington,46.4152,-117.0502
Elmer City,WA,Washington,48,-118.9534
Mossyrock,WA,Washington,46.5305,-122.4887
Summit View,WA,Washington,47.1343,-122.3468
Suquamish,WA,Washington,47.7238,-122.583
Newcastle,WA,Washington,47.5303,-122.1633
Stanwood,WA,Washington,48.2451,-122.3426
Kapowsin,WA,Washington,46.9727,-122.2272
Donald,WA,Washington,46.4737,-120.3923
Altoona,WA,Washington,46.2699,-123.6145
South Prairie,WA,Washington,47.1373,-122.094
Eschbach,WA,Washington,46.667,-120.6337
Indianola,WA,Washington,47.7566,-122.5142
Reardan,WA,Washington,47.6698,-117.8778
Cowiche,WA,Washington,46.6729,-120.7154
Sunday Lake,WA,Washington,48.2306,-122.2684
Rocky Point,WA,Washington,47.5882,-122.6668
Burbank,WA,Washington,46.1991,-118.9728
Lakeland North,WA,Washington,47.3374,-122.2814
Granite Falls,WA,Washington,48.0874,-121.9704
Camas,WA,Washington,45.6003,-122.4306
Skokomish,WA,Washington,47.3298,-123.1579
Cusick,WA,Washington,48.3328,-117.2961
Rosalia,WA,Washington,47.2363,-117.3769
Longbranch,WA,Washington,47.2257,-122.7739
Granger,WA,Washington,46.3455,-120.1926
North Fort Lewis,WA,Washington,47.1221,-122.5966
Tampico,WA,Washington,46.5325,-120.8727
Tukwila,WA,Washington,47.4748,-122.2727
Cathlamet,WA,Washington,46.2056,-123.3835
Wenatchee,WA,Washington,47.4338,-120.3286
Port Ludlow,WA,Washington,47.9101,-122.7006
Castle Rock,WA,Washington,46.2717,-122.9057
Glacier,WA,Washington,48.8903,-121.9323
Index,WA,Washington,47.8212,-121.5556
Republic,WA,Washington,48.6477,-118.7326
Bellevue,WA,Washington,47.5953,-122.155
Malo,WA,Washington,48.7997,-118.6119
Anderson Island,WA,Washington,47.1577,-122.7037
University Place,WA,Washington,47.2148,-122.546
Montesano,WA,Washington,47.0102,-123.5858
Rainier,WA,Washington,46.8917,-122.6867
Fords Prairie,WA,Washington,46.7461,-123.0029
Roy,WA,Washington,46.9971,-122.5423
Oso,WA,Washington,48.2836,-121.9237
Marblemount,WA,Washington,48.5378,-121.4346
Elk Plain,WA,Washington,47.0448,-122.3671
Burlington,WA,Washington,48.4677,-122.3298
Bangor Base,WA,Washington,47.7227,-122.7146
Beaux Arts Village,WA,Washington,47.5854,-122.2009
Port Gamble Tribal Community,WA,Washington,47.8487,-122.5571
Olympia,WA,Washington,47.0417,-122.8959
East Wenatchee,WA,Washington,47.4172,-120.2809
Addy,WA,Washington,48.3588,-117.8372
Minnehaha,WA,Washington,45.6577,-122.6204
Bryn Mawr-Skyway,WA,Washington,47.4949,-122.2411
Satsop,WA,Washington,47.0223,-123.4737
Riverbend,WA,Washington,47.4651,-121.7491
Easton,WA,Washington,47.2405,-121.1733
Silverdale,WA,Washington,47.6663,-122.6828
Napavine,WA,Washington,46.5844,-122.9007
Lochsloy,WA,Washington,48.0597,-122.0411
Ellensburg,WA,Washington,46.9994,-120.547
McKenna,WA,Washington,46.9365,-122.55
Fairfield,WA,Washington,47.3848,-117.1748
Northwest Stanwood,WA,Washington,48.2623,-122.3501
Mansfield,WA,Washington,47.8119,-119.638
Duvall,WA,Washington,47.7354,-121.9725
Markham,WA,Washington,46.9155,-123.9814
Waller,WA,Washington,47.2035,-122.3699
Longview,WA,Washington,46.146,-122.963
Richland,WA,Washington,46.2826,-119.2937
Rosedale,WA,Washington,47.3453,-122.6368
Vancouver,WA,Washington,45.6367,-122.597
Bethel,WA,Washington,47.4874,-122.6175
Custer,WA,Washington,48.9143,-122.6397
Lofall,WA,Washington,47.8113,-122.6564
Fairwood,WA,Washington,47.4467,-122.143
Winlock,WA,Washington,46.4907,-122.9342
Sumner,WA,Washington,47.219,-122.2338
Cottage Lake,WA,Washington,47.7466,-122.0755
Puget Island,WA,Washington,46.1742,-123.3829
Woods Creek,WA,Washington,47.8821,-121.8982
Washougal,WA,Washington,45.5812,-122.3433
Sisco Heights,WA,Washington,48.1188,-122.1076
Canterwood,WA,Washington,47.3766,-122.6022
Wapato,WA,Washington,46.4434,-120.4215
Lower Elochoman,WA,Washington,46.2185,-123.3698
Lake Goodwin,WA,Washington,48.1387,-122.2804
Banks Lake South,WA,Washington,47.6315,-119.276
Kent,WA,Washington,47.3887,-122.2128
Bickleton,WA,Washington,46.0056,-120.3081
Ryderwood,WA,Washington,46.375,-123.0441
Cavalero,WA,Washington,47.9845,-122.0746
La Conner,WA,Washington,48.3925,-122.4945
Martha Lake,WA,Washington,47.848,-122.2326
George,WA,Washington,47.0845,-119.8598
Snohomish,WA,Washington,47.9277,-122.097
Eatonville,WA,Washington,46.8682,-122.2698
Carson,WA,Washington,45.7353,-121.8219
Almira,WA,Washington,47.7105,-118.9369
Nooksack,WA,Washington,48.9276,-122.3211
Mount Vista,WA,Washington,45.7373,-122.6315
High Bridge,WA,Washington,47.7968,-122.0281
Lakeland South,WA,Washington,47.2784,-122.2831
Kenmore,WA,Washington,47.7532,-122.2459
Neah Bay,WA,Washington,48.3612,-124.6115
Cliffdell,WA,Washington,46.9213,-121.042
Port Angeles East,WA,Washington,48.1041,-123.3695
Burien,WA,Washington,47.4762,-122.3393
Taholah,WA,Washington,47.3283,-124.2728
Wauna,WA,Washington,47.386,-122.6694
Connell,WA,Washington,46.6624,-118.8405
Disautel,WA,Washington,48.345,-119.2299
Santiago,WA,Washington,47.2975,-124.2327
Orting,WA,Washington,47.0966,-122.2111
Colville,WA,Washington,48.5454,-117.8986
Marysville,WA,Washington,48.081,-122.1558
Walla Walla,WA,Washington,46.0669,-118.3365
Zillah,WA,Washington,46.4083,-120.2717
Curlew,WA,Washington,48.8777,-118.6045
Key Center,WA,Washington,47.3376,-122.7505
Hoodsport,WA,Washington,47.402,-123.1542
Spanaway,WA,Washington,47.0979,-122.4233
Mattawa,WA,Washington,46.7364,-119.9019
Clallam Bay,WA,Washington,48.2536,-124.2579
Prairie Ridge,WA,Washington,47.1443,-122.1408
Rockport,WA,Washington,48.4854,-121.6065
Stansberry Lake,WA,Washington,47.3814,-122.7154
Copalis Beach,WA,Washington,47.1205,-124.1722
Frederickson,WA,Washington,47.0914,-122.3594
Asotin,WA,Washington,46.3371,-117.0433
Mill Creek,WA,Washington,47.8633,-122.2034
Bell Hill,WA,Washington,48.055,-123.087
Green Bluff,WA,Washington,47.819,-117.277
Clayton,WA,Washington,48.0013,-117.5612
Puyallup,WA,Washington,47.1794,-122.2902
Hockinson,WA,Washington,45.7301,-122.4833
Lake McMurray,WA,Washington,48.3129,-122.2317
Bucoda,WA,Washington,46.7968,-122.868
Issaquah,WA,Washington,47.542,-122.0444
Odessa,WA,Washington,47.3326,-118.6895
Hazel Dell,WA,Washington,45.6797,-122.6553
McMillin,WA,Washington,47.1286,-122.2374
Wilbur,WA,Washington,47.7583,-118.711
Skamokawa Valley,WA,Washington,46.3004,-123.4243
Centerville,WA,Washington,45.754,-120.9081
Nile,WA,Washington,46.8368,-120.9455
Spokane Valley,WA,Washington,47.6625,-117.2346
Woodland,WA,Washington,45.9149,-122.7503
Lewisville,WA,Washington,45.8127,-122.5144
Vantage,WA,Washington,46.9453,-119.9923
Gorst,WA,Washington,47.5237,-122.7057
Lake Morton-Berrydale,WA,Washington,47.3325,-122.103
Ione,WA,Washington,48.7402,-117.4223
Bothell West,WA,Washington,47.8056,-122.24
Vaughn,WA,Washington,47.355,-122.7773
Black Diamond,WA,Washington,47.313,-122.0181
Ferndale,WA,Washington,48.8525,-122.5893
Acme,WA,Washington,48.7146,-122.2293
White Center,WA,Washington,47.5086,-122.348
Fairchild AFB,WA,Washington,47.6187,-117.6485
Pacific,WA,Washington,47.2611,-122.2507
Glenwood,WA,Washington,46.0228,-121.2926
Colfax,WA,Washington,46.9032,-117.3394
Silvana,WA,Washington,48.2018,-122.2459
Forks,WA,Washington,47.9526,-124.3904
Kirkland,WA,Washington,47.6997,-122.2041
Okanogan,WA,Washington,48.3671,-119.5784
Kayak Point,WA,Washington,48.1387,-122.3342
Union Hill-Novelty Hill,WA,Washington,47.6788,-122.0284
Outlook,WA,Washington,46.3311,-120.0923
Lake Tapps,WA,Washington,47.2305,-122.1696
Cohassett Beach,WA,Washington,46.8656,-124.1054
Tonasket,WA,Washington,48.7077,-119.4412
Sunnyside,WA,Washington,46.3159,-120.0058
Lakeview,WA,Washington,47.3755,-119.5043
Carbonado,WA,Washington,47.0805,-122.0536
Pullman,WA,Washington,46.734,-117.1669
Blyn,WA,Washington,48.013,-122.9897
Brinnon,WA,Washington,47.6689,-122.9249
Friday Harbor,WA,Washington,48.5324,-123.0655
Orchards,WA,Washington,45.6888,-122.5305
Purdy,WA,Washington,47.3938,-122.6114
Tekoa,WA,Washington,47.2247,-117.0732
Tanner,WA,Washington,47.4813,-121.6921
Thorp,WA,Washington,47.0656,-120.6709
Artondale,WA,Washington,47.3024,-122.639
Liberty Lake,WA,Washington,47.6687,-117.1032
Cheney,WA,Washington,47.4901,-117.5789
Sammamish,WA,Washington,47.6019,-122.0419
Cle Elum,WA,Washington,47.1946,-120.9553
Fern Prairie,WA,Washington,45.637,-122.3963
Waverly,WA,Washington,47.338,-117.2312
Lakewood,WA,Washington,47.1628,-122.5299
Lake Marcel-Stillwater,WA,Washington,47.6926,-121.9152
Central Park,WA,Washington,46.9705,-123.7018
Bridgeport,WA,Washington,48.0063,-119.6737
Raft Island,WA,Washington,47.3293,-122.6686
Larch Way,WA,Washington,47.8429,-122.2527
Lake Bosworth,WA,Washington,48.0532,-121.9812
Barberton,WA,Washington,45.7136,-122.6114
Sekiu,WA,Washington,48.2637,-124.3012
Brier,WA,Washington,47.7922,-122.2734
Spokane,WA,Washington,47.6671,-117.433
Fall City,WA,Washington,47.5717,-121.9134
Pasco,WA,Washington,46.2506,-119.1303
Lyman,WA,Washington,48.523,-122.0634
Oakville,WA,Washington,46.8403,-123.2333
Dash Point,WA,Washington,47.3131,-122.4153
Herron Island,WA,Washington,47.2645,-122.8348
West Clarkston-Highland,WA,Washington,46.4023,-117.063
Royal City,WA,Washington,46.9,-119.6142
Venersborg,WA,Washington,45.786,-122.4721
Hoquiam,WA,Washington,46.9863,-123.9023
Willapa,WA,Washington,46.6755,-123.6648
Quilcene,WA,Washington,47.8369,-122.9058
Freeland,WA,Washington,48.0185,-122.5358
McCleary,WA,Washington,47.0584,-123.2723
Roosevelt,WA,Washington,45.7476,-120.2161
Long Beach,WA,Washington,46.3559,-124.0556
Trout Lake,WA,Washington,45.9976,-121.5291
Coulee Dam,WA,Washington,47.9688,-118.9761
Swede Heaven,WA,Washington,48.2829,-121.7136
Pine Grove,WA,Washington,48.6502,-118.6834
Langley,WA,Washington,48.0337,-122.4084
Sedro-Woolley,WA,Washington,48.5113,-122.2321
Hatton,WA,Washington,46.7735,-118.8277
Entiat,WA,Washington,47.678,-120.2175
Bainbridge Island,WA,Washington,47.6439,-122.5434
Auburn,WA,Washington,47.3041,-122.211
Ocean City,WA,Washington,47.0763,-124.162
White Swan,WA,Washington,46.3769,-120.7382
Felida,WA,Washington,45.7138,-122.7103
Lacey,WA,Washington,47.0458,-122.7934
Gold Bar,WA,Washington,47.8566,-121.6927
Clyde Hill,WA,Washington,47.6303,-122.218
Upper Elochoman,WA,Washington,46.2403,-123.3247
Marcus,WA,Washington,48.6642,-118.0601
Canyon Creek,WA,Washington,48.1157,-121.9831
Malone,WA,Washington,46.9779,-123.3035
Bothell East,WA,Washington,47.8064,-122.1844
Yarrow Point,WA,Washington,47.6452,-122.2179
Steptoe,WA,Washington,47.0075,-117.3502
West Richland,WA,Washington,46.3115,-119.3997
Orient,WA,Washington,48.8637,-118.2059
Federal Way,WA,Washington,47.309,-122.3359
Pe Ell,WA,Washington,46.5712,-123.2982
Deep River,WA,Washington,46.3521,-123.6984
Bothell,WA,Washington,47.7736,-122.2044
South Wenatchee,WA,Washington,47.3886,-120.2829
Snoqualmie Pass,WA,Washington,47.4014,-121.4109
Hartline,WA,Washington,47.6895,-119.1081
Lake Forest Park,WA,Washington,47.7597,-122.2878
Crocker,WA,Washington,47.0843,-122.1225
Elbe,WA,Washington,46.7653,-122.1946
Ravensdale,WA,Washington,47.3563,-121.9692
Arlington,WA,Washington,48.1697,-122.1446
McChord AFB,WA,Washington,47.1328,-122.4924
Lebam,WA,Washington,46.5641,-123.5509
Lynden,WA,Washington,48.9503,-122.4544
Coupeville,WA,Washington,48.2172,-122.6775
Prescott,WA,Washington,46.2988,-118.3126
South Bend,WA,Washington,46.668,-123.8008
Mabton,WA,Washington,46.2115,-119.9938
North Bend,WA,Washington,47.4898,-121.7738
Grapeview,WA,Washington,47.3316,-122.8413
Garfield,WA,Washington,47.0103,-117.1395
Rochester,WA,Washington,46.8288,-123.0722
Dayton,WA,Washington,46.3168,-117.9769
Algona,WA,Washington,47.2822,-122.2504
Mineral,WA,Washington,46.7193,-122.1859
Barstow,WA,Washington,48.7783,-118.1329
Moclips,WA,Washington,47.2348,-124.2025
Bellingham,WA,Washington,48.7543,-122.4687
Vader,WA,Washington,46.4045,-122.9569
North Lynnwood,WA,Washington,47.8533,-122.2762
Tracyton,WA,Washington,47.6095,-122.6533
White Salmon,WA,Washington,45.7282,-121.4853
Peaceful Valley,WA,Washington,48.9477,-122.1406
East Renton Highlands,WA,Washington,47.4718,-122.0854
Metaline,WA,Washington,48.854,-117.3899
Deming,WA,Washington,48.8381,-122.2313
Medical Lake,WA,Washington,47.5712,-117.6893
Aberdeen,WA,Washington,46.9757,-123.8095
Chehalis,WA,Washington,46.6637,-122.9647
Onalaska,WA,Washington,46.5783,-122.7112
Toledo,WA,Washington,46.4414,-122.8496
Everson,WA,Washington,48.9123,-122.351
Belfair,WA,Washington,47.4495,-122.8487
Lynnwood,WA,Washington,47.8285,-122.3035
Colton,WA,Washington,46.5675,-117.1285
Malden,WA,Washington,47.2296,-117.4731
Ames Lake,WA,Washington,47.6346,-121.9664
Wilson Creek,WA,Washington,47.423,-119.1176
North Yelm,WA,Washington,46.9647,-122.6029
Mirrormont,WA,Washington,47.4616,-121.9936
Whidbey Island Station,WA,Washington,48.3387,-122.6616
Town and Country,WA,Washington,47.7259,-117.4221
Tokeland,WA,Washington,46.709,-123.9839
Snoqualmie,WA,Washington,47.5293,-121.8412
Bremerton,WA,Washington,47.5436,-122.7121
East Cathlamet,WA,Washington,46.1968,-123.358
Fort Lewis,WA,Washington,47.0955,-122.5672
Salmon Creek,WA,Washington,45.7099,-122.6632
Skykomish,WA,Washington,47.7103,-121.3586
Tacoma,WA,Washington,47.2431,-122.4531
Monroe,WA,Washington,47.8596,-121.9853
Loomis,WA,Washington,48.8235,-119.6398
Pomeroy,WA,Washington,46.4737,-117.5967
Brush Prairie,WA,Washington,45.725,-122.5483
Silver Firs,WA,Washington,47.8635,-122.1497
Nespelem,WA,Washington,48.167,-118.9722
Meadowdale,WA,Washington,47.8583,-122.3156
Shadow Lake,WA,Washington,47.4017,-122.0764
LaCrosse,WA,Washington,46.8021,-117.9013
Concrete,WA,Washington,48.5371,-121.7512
Sumas,WA,Washington,48.9956,-122.2695
Ruston,WA,Washington,47.2982,-122.51
La Center,WA,Washington,45.8589,-122.6764
Marrowstone,WA,Washington,48.0568,-122.6933
Chelan Falls,WA,Washington,47.7995,-119.9882
Lake Cavanaugh,WA,Washington,48.3225,-122.0122
Duluth,WA,Washington,45.7838,-122.647
Sequim,WA,Washington,48.0747,-123.0944
Benton City,WA,Washington,46.2624,-119.4814
Moses Lake,WA,Washington,47.1284,-119.2741
Fircrest,WA,Washington,47.2308,-122.5157
Othello,WA,Washington,46.8222,-119.1651
Mercer Island,WA,Washington,47.5625,-122.2265
Enumclaw,WA,Washington,47.2017,-121.9897
Chico,WA,Washington,47.6234,-122.7198
Enetai,WA,Washington,47.5885,-122.6058
Hunts Point,WA,Washington,47.642,-122.229
Clinton,WA,Washington,47.9731,-122.3577
Hat Island,WA,Washington,48.013,-122.3201
Marietta-Alderwood,WA,Washington,48.7932,-122.5566
Waitsburg,WA,Washington,46.2696,-118.151
Sunnyslope,WA,Washington,47.4913,-120.3493
South Cle Elum,WA,Washington,47.1862,-120.9525
Selah,WA,Washington,46.6482,-120.5389
Lind,WA,Washington,46.9704,-118.6165
Five Corners,WA,Washington,45.6883,-122.5738
Winthrop,WA,Washington,48.4716,-120.179
Normandy Park,WA,Washington,47.4344,-122.3436
Home,WA,Washington,47.279,-122.7744
Graham,WA,Washington,47.0407,-122.2757
Yacolt,WA,Washington,45.865,-122.4059
Packwood,WA,Washington,46.6085,-121.6702
Queets,WA,Washington,47.5314,-124.3385
Finley,WA,Washington,46.1697,-119.0446
Northport,WA,Washington,48.9159,-117.7796
Medina,WA,Washington,47.6256,-122.2338
Browns Point,WA,Washington,47.3036,-122.4369
Summit,WA,Washington,47.1694,-122.3628
Albion,WA,Washington,46.7916,-117.2511
Sudden Valley,WA,Washington,48.7199,-122.3468
Bunk Foss,WA,Washington,47.9618,-122.0943
Gleed,WA,Washington,46.6594,-120.6025
Maryhill,WA,Washington,45.6928,-120.807
Oyehut,WA,Washington,47.0233,-124.1632
Alder,WA,Washington,46.7872,-122.2667
Ridgefield,WA,Washington,45.8116,-122.7052
Bryant,WA,Washington,48.24,-122.1638
Nisqually Indian Community,WA,Washington,47.0178,-122.6728
Porter,WA,Washington,46.9489,-123.2736
Kettle Falls,WA,Washington,48.6055,-118.062
Chelan,WA,Washington,47.8417,-120.027
Edison,WA,Washington,48.5602,-122.431
Neilton,WA,Washington,47.4031,-123.8782
Fox Island,WA,Washington,47.2475,-122.6255
Renton,WA,Washington,47.4758,-122.1905
Baring,WA,Washington,47.7661,-121.4803
Hobart,WA,Washington,47.412,-121.996
Wallula,WA,Washington,46.0847,-118.9056
Touchet,WA,Washington,46.0412,-118.6724
Leavenworth,WA,Washington,47.5948,-120.6633
Fobes Hill,WA,Washington,47.9391,-122.1341
Harrington,WA,Washington,47.4802,-118.2552
Port Orchard,WA,Washington,47.5164,-122.661
Alderwood Manor,WA,Washington,47.8147,-122.2676
Kennewick,WA,Washington,46.1979,-119.1732
Ahtanum,WA,Washington,46.5583,-120.6109
Wilderness Rim,WA,Washington,47.4463,-121.7691
Machias,WA,Washington,47.9917,-122.0515
Bingen,WA,Washington,45.7139,-121.4704
Four Lakes,WA,Washington,47.5582,-117.5891
Springdale,WA,Washington,48.0572,-117.7466
Washtucna,WA,Washington,46.7538,-118.3106
Covington,WA,Washington,47.3668,-122.1044
Allyn,WA,Washington,47.3863,-122.8386
North Sultan,WA,Washington,47.8827,-121.8251
Union Gap,WA,Washington,46.5567,-120.4977
Shelton,WA,Washington,47.2188,-123.1127
Chinook,WA,Washington,46.2755,-123.9425
Blaine,WA,Washington,48.9839,-122.7414
Port Hadlock-Irondale,WA,Washington,48.0316,-122.789
Burley,WA,Washington,47.4166,-122.6377
Mount Vernon,WA,Washington,48.4202,-122.3116
Electric City,WA,Washington,47.922,-119.0475
Ronald,WA,Washington,47.2338,-121.0335
Nespelem Community,WA,Washington,48.1715,-119.0244
Amanda Park,WA,Washington,47.4532,-123.9194
Clarkston Heights-Vineland,WA,Washington,46.3876,-117.0831
Boulevard Park,WA,Washington,47.5135,-122.3159
Big Lake,WA,Washington,48.3933,-122.2422
Boyds,WA,Washington,48.7245,-118.1321
Parkwood,WA,Washington,47.5266,-122.5986
Deer Park,WA,Washington,47.9642,-117.4397
Humptulips,WA,Washington,47.2491,-123.9348
SeaTac,WA,Washington,47.4445,-122.2986
Maple Valley,WA,Washington,47.3659,-122.0368
Millwood,WA,Washington,47.6856,-117.2806
Point Roberts,WA,Washington,48.9883,-123.0576
Dixie,WA,Washington,46.1392,-118.148
East Port Orchard,WA,Washington,47.5193,-122.6183
Morton,WA,Washington,46.5575,-122.2815
Alger,WA,Washington,48.6176,-122.3369
Kahlotus,WA,Washington,46.6437,-118.5556
Fife Heights,WA,Washington,47.2593,-122.3457
Cherry Grove,WA,Washington,45.8021,-122.5764
Clearview,WA,Washington,47.8292,-122.1452
Greenwater,WA,Washington,47.1465,-121.632
Picnic Point,WA,Washington,47.8745,-122.3079
Kendall,WA,Washington,48.9168,-122.1383
Seabeck,WA,Washington,47.6437,-122.8219
Startup,WA,Washington,47.8671,-121.7495
Steilacoom,WA,Washington,47.1699,-122.5935
Lamont,WA,Washington,47.2007,-117.9049
Bay View,WA,Washington,48.487,-122.4628
Valley,WA,Washington,48.173,-117.7244
North Marysville,WA,Washington,48.1111,-122.1459
Brady,WA,Washington,47.0064,-123.5321
May Creek,WA,Washington,47.8555,-121.6743
Clear Lake,WA,Washington,48.4561,-122.2378
Keller,WA,Washington,48.0852,-118.7164
Redmond,WA,Washington,47.6762,-122.1169
Ilwaco,WA,Washington,46.3108,-124.0422
Mountlake Terrace,WA,Washington,47.7921,-122.3076
Parker,WA,Washington,46.5022,-120.4668
Soap Lake,WA,Washington,47.3914,-119.4892
Grand Mound,WA,Washington,46.8053,-123.0119
Manchester,WA,Washington,47.5519,-122.5517
Prairie Heights,WA,Washington,47.1529,-122.1048
Verlot,WA,Washington,48.1002,-121.7679
North Omak,WA,Washington,48.444,-119.4459
Naches,WA,Washington,46.7274,-120.6945
Summitview,WA,Washington,46.598,-120.6514
Clover Creek,WA,Washington,47.1404,-122.3827
Prosser,WA,Washington,46.2066,-119.7662
Naselle,WA,Washington,46.365,-123.8013
Rock Island,WA,Washington,47.3743,-120.1382
Goldendale,WA,Washington,45.8192,-120.8233
Maltby,WA,Washington,47.8027,-122.1044
Oak Harbor,WA,Washington,48.2965,-122.6331
Tanglewilde,WA,Washington,47.0512,-122.781
Endicott,WA,Washington,46.9282,-117.6867
Mill Creek East,WA,Washington,47.8361,-122.1877
Maple Heights-Lake Desire,WA,Washington,47.4441,-122.0973
Midland,WA,Washington,47.1734,-122.412
Kingston,WA,Washington,47.8014,-122.4989
Esperance,WA,Washington,47.7937,-122.3469
Grays River,WA,Washington,46.3608,-123.589
Sultan,WA,Washington,47.8708,-121.8044
La Grande,WA,Washington,46.8199,-122.2962
Ritzville,WA,Washington,47.1254,-118.3808
Malott,WA,Washington,48.2919,-119.6954
Coulee City,WA,Washington,47.612,-119.2892
Raymond,WA,Washington,46.6838,-123.738
Wollochet,WA,Washington,47.2828,-122.5769
Quincy,WA,Washington,47.2347,-119.8522
Walla Walla East,WA,Washington,46.0517,-118.3024
Hamilton,WA,Washington,48.5282,-121.9834
Woodinville,WA,Washington,47.7569,-122.1477
Bay Center,WA,Washington,46.6211,-123.9533
Port Townsend,WA,Washington,48.122,-122.7872
Riverside,WA,Washington,48.5047,-119.5102
Woodway,WA,Washington,47.7903,-122.3851
Qui-nai-elt Village,WA,Washington,47.2502,-124.1903
Stevenson,WA,Washington,45.6944,-121.8932
Ocean Park,WA,Washington,46.4961,-124.0443
Port Angeles,WA,Washington,48.1142,-123.4565
Bonney Lake,WA,Washington,47.1789,-122.1698
Oroville,WA,Washington,48.942,-119.4304
Garrett,WA,Washington,46.0633,-118.3876
Otis Orchards-East Farms,WA,Washington,47.703,-117.0854
Warm Beach,WA,Washington,48.1649,-122.3442
Twin Lakes,WA,Washington,48.2622,-118.359
Conway,WA,Washington,48.3357,-122.3444
College Place,WA,Washington,46.0418,-118.3879
Eastmont,WA,Washington,47.8968,-122.1817
Maple Falls,WA,Washington,48.9135,-122.1048
Ephrata,WA,Washington,47.3119,-119.5344
Buena,WA,Washington,46.4299,-120.3176
Tumwater,WA,Washington,46.989,-122.9173
Desert Aire,WA,Washington,46.6873,-119.9311
Lake Holm,WA,Washington,47.2986,-122.1335
Mukilteo,WA,Washington,47.9094,-122.3035
Twisp,WA,Washington,48.3618,-120.1169
Lake Shore,WA,Washington,45.6911,-122.6911
Keyport,WA,Washington,47.6993,-122.6232
Lake Stevens,WA,Washington,48.0029,-122.096
Starbuck,WA,Washington,46.5182,-118.1245
Harrah,WA,Washington,46.4071,-120.5422
Hansville,WA,Washington,47.8978,-122.5579
Carlsborg,WA,Washington,48.0842,-123.1697
Yelm,WA,Washington,46.9398,-122.6261
Fenwick Island,DE,Delaware,38.4603,-75.0542
Delmar,DE,Delaware,38.4651,-75.5552
Ardencroft,DE,Delaware,39.8056,-75.4862
Farmington,DE,Delaware,38.8699,-75.579
Felton,DE,Delaware,39.0127,-75.5764
Hartly,DE,Delaware,39.1683,-75.7125
Pike Creek,DE,Delaware,39.7485,-75.6953
Millville,DE,Delaware,38.5353,-75.1287
Highland Acres,DE,Delaware,39.1162,-75.5216
Rising Sun-Lebanon,DE,Delaware,39.0999,-75.5048
Little Creek,DE,Delaware,39.1661,-75.4481
Magnolia,DE,Delaware,39.0714,-75.476
Greenville,DE,Delaware,39.7783,-75.6049
Elsmere,DE,Delaware,39.7385,-75.5946
Harrington,DE,Delaware,38.9244,-75.5707
Seaford,DE,Delaware,38.6539,-75.6117
Dover Base Housing,DE,Delaware,39.1179,-75.4839
Dagsboro,DE,Delaware,38.5466,-75.2467
Milford,DE,Delaware,38.9091,-75.4224
Bridgeville,DE,Delaware,38.7247,-75.6027
Bellefonte,DE,Delaware,39.7669,-75.4982
Smyrna,DE,Delaware,39.2922,-75.6076
Wilmington Manor,DE,Delaware,39.6858,-75.5849
New Castle,DE,Delaware,39.6685,-75.5692
Bowers,DE,Delaware,39.0602,-75.4021
Bethel,DE,Delaware,38.5706,-75.6194
Selbyville,DE,Delaware,38.4627,-75.2083
Houston,DE,Delaware,38.9174,-75.5039
Woodside East,DE,Delaware,39.0676,-75.5376
Viola,DE,Delaware,39.0429,-75.5714
Dewey Beach,DE,Delaware,38.6958,-75.0749
Newport,DE,Delaware,39.7136,-75.6052
Bethany Beach,DE,Delaware,38.5391,-75.066
Edgemoor,DE,Delaware,39.7551,-75.507
Townsend,DE,Delaware,39.3968,-75.6945
Georgetown,DE,Delaware,38.6899,-75.3872
Kenton,DE,Delaware,39.2272,-75.6646
Greenwood,DE,Delaware,38.8069,-75.5907
North Star,DE,Delaware,39.755,-75.7331
Slaughter Beach,DE,Delaware,38.9143,-75.3085
Middletown,DE,Delaware,39.4453,-75.7166
Blades,DE,Delaware,38.6353,-75.6024
Frederica,DE,Delaware,39.008,-75.4667
Rehoboth Beach,DE,Delaware,38.7168,-75.0843
Milton,DE,Delaware,38.7751,-75.3104
Woodside,DE,Delaware,39.0712,-75.5667
Bear,DE,Delaware,39.6188,-75.6804
Wilmington,DE,Delaware,39.7415,-75.5413
Pike Creek Valley,DE,Delaware,39.7296,-75.6993
Rodney Village,DE,Delaware,39.1284,-75.5395
Henlopen Acres,DE,Delaware,38.7257,-75.0849
Frankford,DE,Delaware,38.5215,-75.2342
Millsboro,DE,Delaware,38.5865,-75.3019
Glasgow,DE,Delaware,39.6015,-75.7474
Clayton,DE,Delaware,39.2846,-75.6364
Cheswold,DE,Delaware,39.2189,-75.5883
Odessa,DE,Delaware,39.4562,-75.6605
Kent Acres,DE,Delaware,39.1325,-75.516
St. Georges,DE,Delaware,39.5576,-75.6533
Ardentown,DE,Delaware,39.8081,-75.4807
Arden,DE,Delaware,39.8113,-75.4886
Ellendale,DE,Delaware,38.8103,-75.425
Lewes,DE,Delaware,38.7781,-75.1454
Laurel,DE,Delaware,38.5696,-75.5688
Brookside,DE,Delaware,39.6666,-75.7153
Wyoming,DE,Delaware,39.1147,-75.5631
Claymont,DE,Delaware,39.8032,-75.4606
Newark,DE,Delaware,39.6776,-75.7573
Long Neck,DE,Delaware,38.62,-75.1511
Camden,DE,Delaware,39.0992,-75.557
Leipsic,DE,Delaware,39.243,-75.5155
Delaware City,DE,Delaware,39.5743,-75.5939
Ocean View,DE,Delaware,38.5357,-75.0991
South Bethany,DE,Delaware,38.5161,-75.0591
Hockessin,DE,Delaware,39.7837,-75.6815
Riverview,DE,Delaware,39.0293,-75.5202
Dover,DE,Delaware,39.161,-75.5203
Washington,DC,District of Columbia,38.9047,-77.0163
Stone Lake,WI,Wisconsin,45.8445,-91.5502
Nelson,WI,Wisconsin,44.4214,-92.0044
Fennimore,WI,Wisconsin,42.9793,-90.6491
Chenequa,WI,Wisconsin,43.1229,-88.3838
Helenville,WI,Wisconsin,43.0165,-88.6999
Tichigan,WI,Wisconsin,42.8088,-88.215
Kekoskee,WI,Wisconsin,43.5271,-88.5615
Wonewoc,WI,Wisconsin,43.6531,-90.2239
St. Peter,WI,Wisconsin,43.8377,-88.3465
Black River Falls,WI,Wisconsin,44.2981,-90.8419
Shiocton,WI,Wisconsin,44.4449,-88.5768
Three Lakes,WI,Wisconsin,45.8047,-89.1708
Waldo,WI,Wisconsin,43.6766,-87.9478
North Prairie,WI,Wisconsin,42.9357,-88.4038
Mattoon,WI,Wisconsin,45.0046,-89.0411
Almond,WI,Wisconsin,44.2607,-89.4087
New Auburn,WI,Wisconsin,45.1988,-91.5666
Hustisford,WI,Wisconsin,43.3442,-88.6033
Little Chute,WI,Wisconsin,44.2895,-88.3199
Birnamwood,WI,Wisconsin,44.9319,-89.2094
Lodi,WI,Wisconsin,43.3154,-89.5367
Whitehall,WI,Wisconsin,44.3705,-91.3476
West Baraboo,WI,Wisconsin,43.4814,-89.7719
Lomira,WI,Wisconsin,43.5945,-88.4421
Brownsville,WI,Wisconsin,43.6145,-88.4952
Bloomer,WI,Wisconsin,45.103,-91.4913
Wabeno,WI,Wisconsin,45.4394,-88.6581
Whitewater,WI,Wisconsin,42.8372,-88.734
Reedsville,WI,Wisconsin,44.1525,-87.9517
Amherst,WI,Wisconsin,44.4475,-89.2832
Monona,WI,Wisconsin,43.054,-89.3334
River Falls,WI,Wisconsin,44.8608,-92.6244
Delavan,WI,Wisconsin,42.6281,-88.6324
Greendale,WI,Wisconsin,42.937,-88.0018
Couderay,WI,Wisconsin,45.7976,-91.3005
Berlin,WI,Wisconsin,43.9704,-88.9505
Grantsburg,WI,Wisconsin,45.7813,-92.6836
Burnett,WI,Wisconsin,43.5065,-88.7085
Lakewood,WI,Wisconsin,45.3006,-88.5146
Wausau,WI,Wisconsin,44.9615,-89.6457
Livingston,WI,Wisconsin,42.9001,-90.4337
Hillsboro,WI,Wisconsin,43.6559,-90.3365
Exeland,WI,Wisconsin,45.6669,-91.2425
Whitelaw,WI,Wisconsin,44.1452,-87.8281
East Troy,WI,Wisconsin,42.7848,-88.3973
Oconto,WI,Wisconsin,44.8918,-87.8692
Elkhorn,WI,Wisconsin,42.6711,-88.5377
Nashotah,WI,Wisconsin,43.0938,-88.4037
Rewey,WI,Wisconsin,42.8419,-90.3961
Ferryville,WI,Wisconsin,43.3516,-91.0935
Neillsville,WI,Wisconsin,44.5605,-90.5905
Sun Prairie,WI,Wisconsin,43.1827,-89.2357
Wilton,WI,Wisconsin,43.8132,-90.5268
Eleva,WI,Wisconsin,44.5763,-91.4705
Menomonie,WI,Wisconsin,44.8893,-91.9084
Wales,WI,Wisconsin,43.0042,-88.3739
Manitowoc,WI,Wisconsin,44.0991,-87.6811
Ashippun,WI,Wisconsin,43.2182,-88.5159
New Lisbon,WI,Wisconsin,43.8781,-90.1625
New Odanah,WI,Wisconsin,46.5986,-90.6618
Sauk City,WI,Wisconsin,43.2721,-89.7307
Pulcifer,WI,Wisconsin,44.8476,-88.3592
New Berlin,WI,Wisconsin,42.9726,-88.1291
Milladore,WI,Wisconsin,44.6057,-89.8549
Mason,WI,Wisconsin,46.4354,-91.06
Oconomowoc Lake,WI,Wisconsin,43.0975,-88.4521
Independence,WI,Wisconsin,44.3328,-91.4172
Maribel,WI,Wisconsin,44.2775,-87.8025
Oak Creek,WI,Wisconsin,42.8803,-87.9009
Van Dyne,WI,Wisconsin,43.8862,-88.5012
Pence,WI,Wisconsin,46.4104,-90.2695
Saukville,WI,Wisconsin,43.3847,-87.9439
Clyman,WI,Wisconsin,43.3116,-88.7231
Wild Rose,WI,Wisconsin,44.1788,-89.2442
Reedsburg,WI,Wisconsin,43.5346,-89.997
Patch Grove,WI,Wisconsin,42.9406,-90.9725
Paddock Lake,WI,Wisconsin,42.5707,-88.1044
New Holstein,WI,Wisconsin,43.9491,-88.0942
Lake Hallie,WI,Wisconsin,44.8921,-91.42
Hewitt,WI,Wisconsin,44.6425,-90.1048
Menomonee Falls,WI,Wisconsin,43.1487,-88.1227
Eastman,WI,Wisconsin,43.1622,-91.0254
Pella,WI,Wisconsin,44.7426,-88.8224
Princeton,WI,Wisconsin,43.8527,-89.1305
Melvina,WI,Wisconsin,43.8024,-90.7815
Peshtigo,WI,Wisconsin,45.0556,-87.7476
Lake Tomahawk,WI,Wisconsin,45.811,-89.5873
Long Lake,WI,Wisconsin,45.8431,-88.6673
Maple Bluff,WI,Wisconsin,43.1132,-89.3719
Mishicot,WI,Wisconsin,44.2303,-87.6422
Iron Ridge,WI,Wisconsin,43.3982,-88.532
Johnson Creek,WI,Wisconsin,43.0812,-88.7702
Juneau,WI,Wisconsin,43.4053,-88.7041
Kohler,WI,Wisconsin,43.7364,-87.7795
Thornton,WI,Wisconsin,44.7984,-88.6917
Seymour,WI,Wisconsin,44.5142,-88.3271
Brandon,WI,Wisconsin,43.7352,-88.7822
Camp Douglas,WI,Wisconsin,43.9197,-90.2697
Hatley,WI,Wisconsin,44.8866,-89.3371
Lake Ripley,WI,Wisconsin,43.0045,-88.9829
Bruce,WI,Wisconsin,45.459,-91.2734
Hammond,WI,Wisconsin,44.9691,-92.4381
Maiden Rock,WI,Wisconsin,44.566,-92.3083
Wind Point,WI,Wisconsin,42.7814,-87.7721
Minong,WI,Wisconsin,46.0978,-91.8263
Lewis,WI,Wisconsin,45.7159,-92.3965
Arkdale,WI,Wisconsin,44.0253,-89.8861
Wautoma,WI,Wisconsin,44.0667,-89.2916
Black Earth,WI,Wisconsin,43.1344,-89.747
Kewaunee,WI,Wisconsin,44.4607,-87.5133
Cumberland,WI,Wisconsin,45.5353,-92.0269
North Bay,WI,Wisconsin,42.7644,-87.7812
Tilleda,WI,Wisconsin,44.8155,-88.9125
Iron Belt,WI,Wisconsin,46.4031,-90.3193
Deerfield,WI,Wisconsin,43.0492,-89.0762
DeForest,WI,Wisconsin,43.2302,-89.3437
Fountain City,WI,Wisconsin,44.1201,-91.6969
Bancroft,WI,Wisconsin,44.3093,-89.5071
Rothschild,WI,Wisconsin,44.8761,-89.6173
Poy Sippi,WI,Wisconsin,44.136,-88.9963
New London,WI,Wisconsin,44.395,-88.7394
Plum City,WI,Wisconsin,44.6338,-92.1918
Lancaster,WI,Wisconsin,42.8474,-90.7065
Rockdale,WI,Wisconsin,42.9717,-89.0318
Doylestown,WI,Wisconsin,43.4276,-89.1457
Wyeville,WI,Wisconsin,44.0279,-90.3861
Cassville,WI,Wisconsin,42.715,-90.989
Wauwatosa,WI,Wisconsin,43.0615,-88.0347
Diaperville,WI,Wisconsin,46.606,-90.7101
Casco,WI,Wisconsin,44.5558,-87.6198
Theresa,WI,Wisconsin,43.5164,-88.454
Centuria,WI,Wisconsin,45.4497,-92.5579
Caledonia,WI,Wisconsin,42.7986,-87.8762
Mole Lake,WI,Wisconsin,45.4859,-88.9823
Edgar,WI,Wisconsin,44.9229,-89.9626
Nekoosa,WI,Wisconsin,44.3135,-89.9073
Sullivan,WI,Wisconsin,43.0118,-88.5903
Greenleaf,WI,Wisconsin,44.317,-88.0972
Tony,WI,Wisconsin,45.4804,-90.9971
Junction City,WI,Wisconsin,44.593,-89.7679
Bohners Lake,WI,Wisconsin,42.6241,-88.2879
Rockland,WI,Wisconsin,43.9075,-90.9165
Boscobel,WI,Wisconsin,43.1436,-90.6953
Chili,WI,Wisconsin,44.6296,-90.3583
Kennan,WI,Wisconsin,45.5301,-90.5868
Plover,WI,Wisconsin,44.4614,-89.5382
Hatfield,WI,Wisconsin,44.4164,-90.7409
Bell Center,WI,Wisconsin,43.2916,-90.8256
Antigo,WI,Wisconsin,45.1415,-89.1556
Rome,WI,Wisconsin,42.9823,-88.6389
Spencer,WI,Wisconsin,44.7544,-90.2983
Lake Delton,WI,Wisconsin,43.5932,-89.7841
Hixton,WI,Wisconsin,44.3831,-91.0149
Cadott,WI,Wisconsin,44.9502,-91.1532
Hingham,WI,Wisconsin,43.6465,-87.9151
Cornell,WI,Wisconsin,45.1632,-91.1497
Port Wing,WI,Wisconsin,46.7756,-91.3807
Oakdale,WI,Wisconsin,43.962,-90.3789
Sussex,WI,Wisconsin,43.134,-88.2231
Galesville,WI,Wisconsin,44.0839,-91.358
Dellwood,WI,Wisconsin,43.9545,-89.9341
Middle Village,WI,Wisconsin,44.9347,-88.7334
Cochrane,WI,Wisconsin,44.2281,-91.8391
Muskego,WI,Wisconsin,42.886,-88.1291
Greenwood,WI,Wisconsin,44.7655,-90.5988
Whitefish Bay,WI,Wisconsin,43.1132,-87.9003
Altoona,WI,Wisconsin,44.803,-91.4387
Vesper,WI,Wisconsin,44.4805,-89.9676
Rice Lake,WI,Wisconsin,45.4863,-91.7447
Columbus,WI,Wisconsin,43.3354,-89.03
Campbellsport,WI,Wisconsin,43.5976,-88.2813
New Post,WI,Wisconsin,45.8965,-91.193
Warrens,WI,Wisconsin,44.1287,-90.5157
Marshall,WI,Wisconsin,43.1726,-89.0614
Allenton,WI,Wisconsin,43.4204,-88.3443
Brodhead,WI,Wisconsin,42.6168,-89.3756
Elk Mound,WI,Wisconsin,44.8744,-91.6863
Clam Lake,WI,Wisconsin,46.1579,-90.9056
Germantown,WI,Wisconsin,43.2343,-88.1217
Bloomington,WI,Wisconsin,42.8933,-90.9265
Crivitz,WI,Wisconsin,45.2337,-88.0066
Wittenberg,WI,Wisconsin,44.8269,-89.1664
Danbury,WI,Wisconsin,46.0088,-92.3777
Drummond,WI,Wisconsin,46.3436,-91.25
Gilmanton,WI,Wisconsin,44.4738,-91.6785
Mazomanie,WI,Wisconsin,43.1731,-89.7954
Poynette,WI,Wisconsin,43.3922,-89.4058
Fairchild,WI,Wisconsin,44.6036,-90.9577
Elm Grove,WI,Wisconsin,43.0479,-88.0867
Laona,WI,Wisconsin,45.5597,-88.6697
Plymouth,WI,Wisconsin,43.7451,-87.9656
Port Washington,WI,Wisconsin,43.3847,-87.8852
Krakow,WI,Wisconsin,44.7585,-88.2611
Howards Grove,WI,Wisconsin,43.8261,-87.8232
Spring Green,WI,Wisconsin,43.1776,-90.0688
Mount Hope,WI,Wisconsin,42.9697,-90.8596
Omro,WI,Wisconsin,44.0391,-88.7378
Kaukauna,WI,Wisconsin,44.2778,-88.2645
Woodman,WI,Wisconsin,43.0925,-90.7977
Bellevue,WI,Wisconsin,44.4593,-87.9554
Bluffview,WI,Wisconsin,43.3641,-89.773
Legend Lake,WI,Wisconsin,44.8909,-88.544
Cambria,WI,Wisconsin,43.5416,-89.1108
Fort Atkinson,WI,Wisconsin,42.9253,-88.8441
Bay City,WI,Wisconsin,44.5872,-92.4574
River Hills,WI,Wisconsin,43.1717,-87.9353
Loyal,WI,Wisconsin,44.7366,-90.4959
Fitchburg,WI,Wisconsin,42.9859,-89.4255
Norwalk,WI,Wisconsin,43.8342,-90.6269
Chippewa Falls,WI,Wisconsin,44.9359,-91.3902
Burlington,WI,Wisconsin,42.6749,-88.2724
Appleton,WI,Wisconsin,44.2774,-88.3894
Edgerton,WI,Wisconsin,42.8386,-89.0698
Scandinavia,WI,Wisconsin,44.4608,-89.146
Sturtevant,WI,Wisconsin,42.6995,-87.9019
Knowlton,WI,Wisconsin,44.7189,-89.6803
Elroy,WI,Wisconsin,43.742,-90.2705
Rosholt,WI,Wisconsin,44.63,-89.3052
Chilton,WI,Wisconsin,44.0293,-88.1625
Barneveld,WI,Wisconsin,43.0117,-89.8968
Arcadia,WI,Wisconsin,44.2486,-91.4921
Coon Valley,WI,Wisconsin,43.7024,-91.0112
Franklin,WI,Wisconsin,42.8854,-88.0104
Blue River,WI,Wisconsin,43.1844,-90.5718
Montreal,WI,Wisconsin,46.4312,-90.2382
West Bend,WI,Wisconsin,43.4184,-88.1823
Elmwood Park,WI,Wisconsin,42.6917,-87.8223
Athens,WI,Wisconsin,45.0349,-90.0792
New Richmond,WI,Wisconsin,45.1229,-92.5339
Baileys Harbor,WI,Wisconsin,45.0659,-87.133
Merrimac,WI,Wisconsin,43.3741,-89.6272
Oregon,WI,Wisconsin,42.9252,-89.3887
Downing,WI,Wisconsin,45.0498,-92.1243
Catawba,WI,Wisconsin,45.5371,-90.5335
Bowler,WI,Wisconsin,44.8627,-88.9814
Wisconsin Rapids,WI,Wisconsin,44.3928,-89.8265
Tustin,WI,Wisconsin,44.1698,-88.896
Cuba City,WI,Wisconsin,42.6036,-90.4318
Webster,WI,Wisconsin,45.8798,-92.3628
Lone Rock,WI,Wisconsin,43.1857,-90.2012
Pittsville,WI,Wisconsin,44.439,-90.1301
Shorewood Hills,WI,Wisconsin,43.0788,-89.447
Fox Point,WI,Wisconsin,43.1581,-87.9013
Winter,WI,Wisconsin,45.8221,-91.013
Lake Geneva,WI,Wisconsin,42.5825,-88.4282
Coleman,WI,Wisconsin,45.0695,-88.0348
Springfield,WI,Wisconsin,42.6407,-88.4135
Marengo,WI,Wisconsin,46.4219,-90.8081
Siren,WI,Wisconsin,45.7826,-92.3823
Argonne,WI,Wisconsin,45.6582,-88.8777
Packwaukee,WI,Wisconsin,43.7653,-89.4599
Dodgeville,WI,Wisconsin,42.966,-90.1297
Marathon City,WI,Wisconsin,44.9379,-89.8436
St. Joseph,WI,Wisconsin,43.7855,-91.0436
Cascade,WI,Wisconsin,43.6598,-88.0075
Turtle Lake,WI,Wisconsin,45.3934,-92.1451
Green Valley,WI,Wisconsin,44.7969,-88.2682
Beloit,WI,Wisconsin,42.523,-89.0184
Bear Creek,WI,Wisconsin,44.5313,-88.7275
Glen Haven,WI,Wisconsin,42.8313,-91.0633
South Milwaukee,WI,Wisconsin,42.912,-87.8627
Hager City,WI,Wisconsin,44.6012,-92.5336
Saxon,WI,Wisconsin,46.4941,-90.41
Green Bay,WI,Wisconsin,44.515,-87.9896
Browntown,WI,Wisconsin,42.5788,-89.7894
Barron,WI,Wisconsin,45.4015,-91.8476
Prairie du Sac,WI,Wisconsin,43.292,-89.7352
Suamico,WI,Wisconsin,44.6352,-88.0664
Hancock,WI,Wisconsin,44.1333,-89.5209
Ettrick,WI,Wisconsin,44.1695,-91.265
Ridgeland,WI,Wisconsin,45.2025,-91.8965
Stockholm,WI,Wisconsin,44.4852,-92.2633
Weyauwega,WI,Wisconsin,44.324,-88.9332
Cross Plains,WI,Wisconsin,43.1146,-89.6475
Jackson,WI,Wisconsin,43.3244,-88.1668
Barronett,WI,Wisconsin,45.6363,-91.9942
Okauchee Lake,WI,Wisconsin,43.1248,-88.4408
Cobb,WI,Wisconsin,42.9661,-90.3296
Eagle,WI,Wisconsin,42.879,-88.4696
Eagle Lake,WI,Wisconsin,42.7014,-88.1291
Birch Hill,WI,Wisconsin,46.5209,-90.5555
Tomahawk,WI,Wisconsin,45.4746,-89.7228
Ripon,WI,Wisconsin,43.8436,-88.8386
Gordon,WI,Wisconsin,46.2409,-91.7995
Merrill,WI,Wisconsin,45.1818,-89.7004
Potter,WI,Wisconsin,44.1202,-88.0991
Lac La Belle,WI,Wisconsin,43.1428,-88.5302
Cottage Grove,WI,Wisconsin,43.0908,-89.2026
Ashwaubenon,WI,Wisconsin,44.4796,-88.0889
Balsam Lake,WI,Wisconsin,45.4585,-92.4528
Curtiss,WI,Wisconsin,44.9521,-90.435
Sandy Hook,WI,Wisconsin,42.5466,-90.6168
Glenbeulah,WI,Wisconsin,43.7982,-88.0465
Taycheedah,WI,Wisconsin,43.8122,-88.3914
Hartford,WI,Wisconsin,43.322,-88.3782
St. Cloud,WI,Wisconsin,43.8245,-88.1687
Milton,WI,Wisconsin,42.7751,-88.943
West Salem,WI,Wisconsin,43.8989,-91.0882
Tigerton,WI,Wisconsin,44.7409,-89.0459
Washburn,WI,Wisconsin,46.6769,-90.9017
Adell,WI,Wisconsin,43.6214,-87.9482
Wausaukee,WI,Wisconsin,45.378,-87.9552
Phillips,WI,Wisconsin,45.6958,-90.4018
Goodman,WI,Wisconsin,45.6231,-88.3518
Jefferson,WI,Wisconsin,43.0044,-88.8084
Spring Valley,WI,Wisconsin,44.85,-92.2443
White Lake,WI,Wisconsin,45.1617,-88.7704
Verona,WI,Wisconsin,42.9884,-89.5381
Fox Lake,WI,Wisconsin,43.5618,-88.913
Valders,WI,Wisconsin,44.0696,-87.8859
Wauzeka,WI,Wisconsin,43.0851,-90.8995
Hurley,WI,Wisconsin,46.4462,-90.1983
Madison,WI,Wisconsin,43.0827,-89.3923
West Allis,WI,Wisconsin,43.0068,-88.0296
Maine,WI,Wisconsin,45.0503,-89.6823
Hustler,WI,Wisconsin,43.8773,-90.2658
Amery,WI,Wisconsin,45.3045,-92.3635
Caroline,WI,Wisconsin,44.722,-88.8948
Reeseville,WI,Wisconsin,43.3062,-88.8445
Iron River,WI,Wisconsin,46.567,-91.407
Bagley,WI,Wisconsin,42.9015,-91.0974
Gratiot,WI,Wisconsin,42.5801,-90.0235
Osceola,WI,Wisconsin,45.3194,-92.6935
Neopit,WI,Wisconsin,44.9877,-88.8227
New Glarus,WI,Wisconsin,42.813,-89.6337
Stanley,WI,Wisconsin,44.9597,-90.9424
Stetsonville,WI,Wisconsin,45.0772,-90.3143
Montello,WI,Wisconsin,43.7938,-89.3336
Prentice,WI,Wisconsin,45.5408,-90.2898
Mondovi,WI,Wisconsin,44.5712,-91.6667
Herbster,WI,Wisconsin,46.8421,-91.2419
Clayton,WI,Wisconsin,45.326,-92.171
Como,WI,Wisconsin,42.6114,-88.4914
Brown Deer,WI,Wisconsin,43.1743,-87.975
Woodruff,WI,Wisconsin,45.8946,-89.6913
Boaz,WI,Wisconsin,43.3299,-90.5277
Marquette,WI,Wisconsin,43.7464,-89.1384
Endeavor,WI,Wisconsin,43.7163,-89.4695
Mauston,WI,Wisconsin,43.7995,-90.0775
Oliver,WI,Wisconsin,46.6493,-92.1883
Howard,WI,Wisconsin,44.5703,-88.0921
Port Edwards,WI,Wisconsin,44.3484,-89.854
Fox Crossing,WI,Wisconsin,44.2236,-88.4787
Westboro,WI,Wisconsin,45.3608,-90.2934
Gays Mills,WI,Wisconsin,43.322,-90.8489
Sobieski,WI,Wisconsin,44.7226,-88.0659
Spooner,WI,Wisconsin,45.8271,-91.886
Elderon,WI,Wisconsin,44.7843,-89.248
Big Bend,WI,Wisconsin,42.9023,-88.2122
Lannon,WI,Wisconsin,43.1522,-88.1604
Glen Flora,WI,Wisconsin,45.497,-90.8935
Eureka,WI,Wisconsin,44.0073,-88.8426
Poplar,WI,Wisconsin,46.5828,-91.7836
Sturgeon Bay,WI,Wisconsin,44.8228,-87.3661
Tainter Lake,WI,Wisconsin,44.9882,-91.8437
Abbotsford,WI,Wisconsin,44.9433,-90.3163
Harrison,WI,Wisconsin,44.1935,-88.2941
Darien,WI,Wisconsin,42.6007,-88.7129
Glidden,WI,Wisconsin,46.1346,-90.5721
Sheldon,WI,Wisconsin,45.3119,-90.9567
Kimberly,WI,Wisconsin,44.267,-88.3377
Greenbush,WI,Wisconsin,43.7778,-88.0902
Iola,WI,Wisconsin,44.5091,-89.1248
Yuba,WI,Wisconsin,43.5364,-90.4267
North Fond du Lac,WI,Wisconsin,43.8107,-88.4861
Allouez,WI,Wisconsin,44.4721,-88.0261
Dunbar,WI,Wisconsin,45.6471,-88.1754
Auburndale,WI,Wisconsin,44.6266,-90.0144
Soldiers Grove,WI,Wisconsin,43.3921,-90.7735
La Farge,WI,Wisconsin,43.5782,-90.6381
McFarland,WI,Wisconsin,43.0196,-89.2868
Waumandee,WI,Wisconsin,44.3024,-91.7051
Potosi,WI,Wisconsin,42.6875,-90.7107
Fall River,WI,Wisconsin,43.3856,-89.0456
Cambridge,WI,Wisconsin,43.0071,-89.0214
Gresham,WI,Wisconsin,44.8478,-88.7856
Zoar,WI,Wisconsin,45.0178,-88.8945
Wrightstown,WI,Wisconsin,44.3263,-88.1758
Two Rivers,WI,Wisconsin,44.1564,-87.5824
Somerset,WI,Wisconsin,45.1269,-92.6756
Delavan Lake,WI,Wisconsin,42.5987,-88.6177
Clintonville,WI,Wisconsin,44.6221,-88.7513
Stoddard,WI,Wisconsin,43.6622,-91.2181
Benton,WI,Wisconsin,42.5702,-90.3835
Wisconsin Dells,WI,Wisconsin,43.6336,-89.7752
Rhinelander,WI,Wisconsin,45.636,-89.4256
Redgranite,WI,Wisconsin,44.0513,-89.1058
Taylor,WI,Wisconsin,44.3217,-91.1206
Sextonville,WI,Wisconsin,43.2797,-90.2922
Rock Springs,WI,Wisconsin,43.479,-89.9177
Angelica,WI,Wisconsin,44.675,-88.3215
Franks Field,WI,Wisconsin,46.5522,-90.5989
Coloma,WI,Wisconsin,44.0386,-89.531
Fond du Lac,WI,Wisconsin,43.7718,-88.4397
Dousman,WI,Wisconsin,43.0088,-88.476
Thorp,WI,Wisconsin,44.958,-90.8023
Cameron,WI,Wisconsin,45.4057,-91.7423
Rib Lake,WI,Wisconsin,45.3196,-90.2031
Richland Center,WI,Wisconsin,43.3403,-90.384
Somers,WI,Wisconsin,42.6411,-87.8919
Osseo,WI,Wisconsin,44.5795,-91.212
Frederic,WI,Wisconsin,45.6548,-92.4647
Oakfield,WI,Wisconsin,43.6843,-88.5476
Alma,WI,Wisconsin,44.3366,-91.9222
Cable,WI,Wisconsin,46.2013,-91.2933
Potter Lake,WI,Wisconsin,42.8196,-88.3487
Bangor,WI,Wisconsin,43.8937,-90.9935
Kenosha,WI,Wisconsin,42.5864,-87.8762
Marion,WI,Wisconsin,44.6744,-88.8902
Kiel,WI,Wisconsin,43.9167,-88.0266
Dickeyville,WI,Wisconsin,42.6248,-90.5914
Dalton,WI,Wisconsin,43.6562,-89.2069
Augusta,WI,Wisconsin,44.6784,-91.1203
Boyceville,WI,Wisconsin,45.0427,-92.0384
Blanchardville,WI,Wisconsin,42.8094,-89.8606
Merrillan,WI,Wisconsin,44.4504,-90.8355
Milltown,WI,Wisconsin,45.5261,-92.5015
Random Lake,WI,Wisconsin,43.5541,-87.9548
Racine,WI,Wisconsin,42.7274,-87.8135
Prairie Farm,WI,Wisconsin,45.2368,-91.9805
Pleasant Prairie,WI,Wisconsin,42.5266,-87.8895
Arena,WI,Wisconsin,43.1636,-89.9104
Conrath,WI,Wisconsin,45.3842,-91.0357
Blue Mounds,WI,Wisconsin,43.018,-89.8265
West Milwaukee,WI,Wisconsin,43.0124,-87.971
Luck,WI,Wisconsin,45.5718,-92.4667
Cataract,WI,Wisconsin,44.0867,-90.8384
Florence,WI,Wisconsin,45.925,-88.2525
Keshena,WI,Wisconsin,44.8697,-88.6002
Chain O' Lakes,WI,Wisconsin,44.3318,-89.1671
Linden,WI,Wisconsin,42.9186,-90.2742
North Hudson,WI,Wisconsin,44.9976,-92.7559
Genoa City,WI,Wisconsin,42.5065,-88.3193
Withee,WI,Wisconsin,44.9508,-90.5989
Avoca,WI,Wisconsin,43.1906,-90.326
Rosendale,WI,Wisconsin,43.808,-88.6731
Egg Harbor,WI,Wisconsin,45.0528,-87.2826
Eden,WI,Wisconsin,43.6928,-88.3642
Lynxville,WI,Wisconsin,43.2493,-91.0464
Forest Junction,WI,Wisconsin,44.2139,-88.1496
Niagara,WI,Wisconsin,45.7801,-87.9991
Sayner,WI,Wisconsin,45.991,-89.5332
Solon Springs,WI,Wisconsin,46.3495,-91.8208
Boulder Junction,WI,Wisconsin,46.1126,-89.6452
Brice Prairie,WI,Wisconsin,43.9375,-91.3073
Jump River,WI,Wisconsin,45.3555,-90.7966
Kellnersville,WI,Wisconsin,44.2253,-87.8021
Navarino,WI,Wisconsin,44.6108,-88.4936
Kewaskum,WI,Wisconsin,43.5177,-88.2306
Argyle,WI,Wisconsin,42.7013,-89.8659
Chaseburg,WI,Wisconsin,43.6598,-91.097
Darlington,WI,Wisconsin,42.678,-90.1189
Milwaukee,WI,Wisconsin,43.0642,-87.9673
Mount Horeb,WI,Wisconsin,43.006,-89.7317
Hortonville,WI,Wisconsin,44.3368,-88.6361
Lake Mills,WI,Wisconsin,43.0774,-88.9055
Edmund,WI,Wisconsin,42.9662,-90.2644
Lowell,WI,Wisconsin,43.3363,-88.8183
Oxford,WI,Wisconsin,43.7798,-89.5625
St. Francis,WI,Wisconsin,42.9716,-87.8729
Elkhart Lake,WI,Wisconsin,43.8321,-88.0147
Star Prairie,WI,Wisconsin,45.1975,-92.5321
Genoa,WI,Wisconsin,43.5734,-91.2261
Friendship,WI,Wisconsin,43.972,-89.8202
Medford,WI,Wisconsin,45.1366,-90.3437
Pardeeville,WI,Wisconsin,43.5359,-89.301
Randolph,WI,Wisconsin,43.5396,-89.0029
Forestville,WI,Wisconsin,44.6907,-87.4787
Beaver Dam,WI,Wisconsin,43.4688,-88.8311
Kieler,WI,Wisconsin,42.5823,-90.6051
Elcho,WI,Wisconsin,45.4353,-89.1853
Belleville,WI,Wisconsin,42.8643,-89.5402
Post Lake,WI,Wisconsin,45.4352,-89.0921
Little Sturgeon,WI,Wisconsin,44.8422,-87.5743
Ellison Bay,WI,Wisconsin,45.2551,-87.0729
Mount Pleasant,WI,Wisconsin,42.7129,-87.8875
Hebron,WI,Wisconsin,42.9232,-88.6916
Arlington,WI,Wisconsin,43.335,-89.3725
King,WI,Wisconsin,44.34,-89.1231
Knapp,WI,Wisconsin,44.9514,-92.0769
Prescott,WI,Wisconsin,44.7522,-92.7882
Dane,WI,Wisconsin,43.2499,-89.4996
Lake Sherwood,WI,Wisconsin,44.2057,-89.7939
Buffalo City,WI,Wisconsin,44.2237,-91.8654
Delafield,WI,Wisconsin,43.072,-88.3913
Millston,WI,Wisconsin,44.1885,-90.6447
Mountain,WI,Wisconsin,45.1864,-88.4681
Wilson,WI,Wisconsin,44.9586,-92.1705
Rochester,WI,Wisconsin,42.7338,-88.2489
Glenwood City,WI,Wisconsin,45.057,-92.1714
Readstown,WI,Wisconsin,43.4485,-90.759
Sherwood,WI,Wisconsin,44.1765,-88.2756
Waupaca,WI,Wisconsin,44.3508,-89.0721
Brooklyn,WI,Wisconsin,42.8524,-89.3723
Waubeka,WI,Wisconsin,43.4702,-87.9921
Green Lake,WI,Wisconsin,43.8441,-88.956
Radisson,WI,Wisconsin,45.7684,-91.2178
Ogema,WI,Wisconsin,45.451,-90.2927
Cazenovia,WI,Wisconsin,43.5237,-90.1991
Mount Calvary,WI,Wisconsin,43.8263,-88.2461
Mosinee,WI,Wisconsin,44.7874,-89.6839
Downsville,WI,Wisconsin,44.7708,-91.926
Tunnel City,WI,Wisconsin,44.005,-90.5679
Hazel Green,WI,Wisconsin,42.5341,-90.4362
Colby,WI,Wisconsin,44.9107,-90.3159
Ingram,WI,Wisconsin,45.5056,-90.8137
Newald,WI,Wisconsin,45.7396,-88.7005
Strum,WI,Wisconsin,44.5532,-91.3876
Lake Ivanhoe,WI,Wisconsin,42.58,-88.3415
Lyndon Station,WI,Wisconsin,43.7088,-89.8937
Winneconne,WI,Wisconsin,44.1112,-88.7114
Baldwin,WI,Wisconsin,44.954,-92.3709
Diamond Bluff,WI,Wisconsin,44.6489,-92.6189
Grand Marsh,WI,Wisconsin,43.8852,-89.7072
Pembine,WI,Wisconsin,45.6367,-87.9918
Union Grove,WI,Wisconsin,42.6863,-88.0495
Hales Corners,WI,Wisconsin,42.941,-88.0491
Winchester,WI,Wisconsin,44.1982,-88.6599
Oostburg,WI,Wisconsin,43.6237,-87.7888
Ixonia,WI,Wisconsin,43.1396,-88.5963
Necedah,WI,Wisconsin,44.0233,-90.0717
Newburg,WI,Wisconsin,43.4321,-88.0477
Friesland,WI,Wisconsin,43.5886,-89.0669
Shorewood,WI,Wisconsin,43.0914,-87.8864
Dorchester,WI,Wisconsin,45.0025,-90.3308
Wheeler,WI,Wisconsin,45.0441,-91.9037
Park Falls,WI,Wisconsin,45.9348,-90.4463
Brillion,WI,Wisconsin,44.1755,-88.0708
Manawa,WI,Wisconsin,44.4613,-88.9204
Weyerhaeuser,WI,Wisconsin,45.4251,-91.4145
Steuben,WI,Wisconsin,43.1833,-90.8569
Crandon,WI,Wisconsin,45.5686,-88.8973
Haugen,WI,Wisconsin,45.6078,-91.7789
Pound,WI,Wisconsin,45.0956,-88.0334
Horicon,WI,Wisconsin,43.4453,-88.6403
Owen,WI,Wisconsin,44.9485,-90.5621
Belmont,WI,Wisconsin,42.738,-90.3347
Rio,WI,Wisconsin,43.4497,-89.2388
Algoma,WI,Wisconsin,44.6057,-87.4465
Monroe,WI,Wisconsin,42.603,-89.6381
Albany,WI,Wisconsin,42.7069,-89.4367
Eland,WI,Wisconsin,44.867,-89.209
Brule,WI,Wisconsin,46.5589,-91.5712
Viola,WI,Wisconsin,43.507,-90.6735
Luxemburg,WI,Wisconsin,44.5449,-87.7065
Hollandale,WI,Wisconsin,42.8756,-89.9342
Blair,WI,Wisconsin,44.3083,-91.2425
Monticello,WI,Wisconsin,42.7456,-89.5899
Williams Bay,WI,Wisconsin,42.577,-88.5432
Sheboygan,WI,Wisconsin,43.7403,-87.7316
Rudolph,WI,Wisconsin,44.4972,-89.8018
Rib Mountain,WI,Wisconsin,44.9196,-89.6771
St. Croix Falls,WI,Wisconsin,45.4101,-92.6268
Stevens Point,WI,Wisconsin,44.5241,-89.5508
Sparta,WI,Wisconsin,43.9376,-90.813
Plainfield,WI,Wisconsin,44.2175,-89.497
Fremont,WI,Wisconsin,44.2602,-88.8715
Tomah,WI,Wisconsin,43.988,-90.4996
Waukesha,WI,Wisconsin,43.0087,-88.2464
Adams,WI,Wisconsin,43.9554,-89.8169
Dyckesville,WI,Wisconsin,44.6404,-87.7656
La Crosse,WI,Wisconsin,43.8241,-91.2268
Trempealeau,WI,Wisconsin,44.0029,-91.4285
Brookfield,WI,Wisconsin,43.064,-88.1231
Suring,WI,Wisconsin,45.0007,-88.3693
Hilbert,WI,Wisconsin,44.1415,-88.1611
Viroqua,WI,Wisconsin,43.5582,-90.8863
Clinton,WI,Wisconsin,42.5574,-88.8679
Greenfield,WI,Wisconsin,42.9619,-88.0051
Middleton,WI,Wisconsin,43.1064,-89.5058
Ontario,WI,Wisconsin,43.7222,-90.5941
Muscoda,WI,Wisconsin,43.1873,-90.4334
Browns Lake,WI,Wisconsin,42.6908,-88.2308
Lake Arrowhead,WI,Wisconsin,44.203,-89.8388
Boyd,WI,Wisconsin,44.9533,-91.0398
Lebanon,WI,Wisconsin,43.2588,-88.6294
Platteville,WI,Wisconsin,42.7279,-90.4675
Cudahy,WI,Wisconsin,42.9467,-87.8641
Lime Ridge,WI,Wisconsin,43.4676,-90.1577
Chelsea,WI,Wisconsin,45.2926,-90.3054
Janesville,WI,Wisconsin,42.6855,-89.0136
Abrams,WI,Wisconsin,44.7796,-88.0605
French Island,WI,Wisconsin,43.8592,-91.2614
Lauderdale Lakes,WI,Wisconsin,42.7709,-88.5778
Mellen,WI,Wisconsin,46.324,-90.6607
Hayward,WI,Wisconsin,46.0094,-91.4826
Dale,WI,Wisconsin,44.2757,-88.6729
Lena,WI,Wisconsin,44.953,-88.0476
Colfax,WI,Wisconsin,44.997,-91.7264
Northport,WI,Wisconsin,44.4082,-88.8038
North Freedom,WI,Wisconsin,43.459,-89.8603
Fontana-on-Geneva Lake,WI,Wisconsin,42.5453,-88.5701
Hanover,WI,Wisconsin,42.6388,-89.1712
La Valle,WI,Wisconsin,43.5831,-90.1304
Watertown,WI,Wisconsin,43.1893,-88.7285
Summit,WI,Wisconsin,43.0504,-88.4815
Reserve,WI,Wisconsin,45.8338,-91.3545
Mount Sterling,WI,Wisconsin,43.3163,-90.9292
Whiting,WI,Wisconsin,44.4907,-89.56
Lake Wazeecha,WI,Wisconsin,44.3709,-89.7551
Eagle River,WI,Wisconsin,45.925,-89.256
Mercer,WI,Wisconsin,46.1636,-90.0527
Oconto Falls,WI,Wisconsin,44.8738,-88.1444
Minocqua,WI,Wisconsin,45.8788,-89.7032
Marinette,WI,Wisconsin,45.0869,-87.6327
Amberg,WI,Wisconsin,45.5062,-87.9874
Ironton,WI,Wisconsin,43.5452,-90.1436
Aniwa,WI,Wisconsin,45.0117,-89.2089
Waterford,WI,Wisconsin,42.7646,-88.2158
Shell Lake,WI,Wisconsin,45.7322,-91.9033
Arpin,WI,Wisconsin,44.5393,-90.0315
Shullsburg,WI,Wisconsin,42.5733,-90.2347
Nichols,WI,Wisconsin,44.5672,-88.4677
Ephraim,WI,Wisconsin,45.1589,-87.1667
Juda,WI,Wisconsin,42.59,-89.5092
Springbrook,WI,Wisconsin,45.9468,-91.689
Ogdensburg,WI,Wisconsin,44.4535,-89.0316
Big Falls,WI,Wisconsin,44.6175,-89.0166
Grand View,WI,Wisconsin,46.3681,-91.1035
Stockbridge,WI,Wisconsin,44.0717,-88.3105
Collins,WI,Wisconsin,44.0827,-87.9839
Oshkosh,WI,Wisconsin,44.0228,-88.5617
Trego,WI,Wisconsin,45.9049,-91.8286
Hobart,WI,Wisconsin,44.4966,-88.1602
Loganville,WI,Wisconsin,43.4384,-90.0369
Ashland,WI,Wisconsin,46.5801,-90.8715
De Soto,WI,Wisconsin,43.4283,-91.1963
Sheboygan Falls,WI,Wisconsin,43.729,-87.8266
Holmen,WI,Wisconsin,43.9701,-91.2671
Hudson,WI,Wisconsin,44.9639,-92.7316
Butler,WI,Wisconsin,43.1084,-88.0714
Pine River,WI,Wisconsin,44.1483,-89.0757
Wind Lake,WI,Wisconsin,42.823,-88.1573
Westby,WI,Wisconsin,43.653,-90.8584
Cornucopia,WI,Wisconsin,46.8567,-91.1082
Pepin,WI,Wisconsin,44.4423,-92.1483
Wiota,WI,Wisconsin,42.6367,-89.9493
Portage,WI,Wisconsin,43.5489,-89.4658
Lohrville,WI,Wisconsin,44.0382,-89.1201
Butte des Morts,WI,Wisconsin,44.1059,-88.6564
Fredonia,WI,Wisconsin,43.4715,-87.9489
Holcombe,WI,Wisconsin,45.2261,-91.1217
Eau Claire,WI,Wisconsin,44.82,-91.4951
Butternut,WI,Wisconsin,46.0138,-90.4988
Superior,WI,Wisconsin,46.6941,-92.0823
Deer Park,WI,Wisconsin,45.1887,-92.3879
Gotham,WI,Wisconsin,43.2225,-90.297
Chetek,WI,Wisconsin,45.316,-91.6533
Merton,WI,Wisconsin,43.1423,-88.3088
Mineral Point,WI,Wisconsin,42.8628,-90.182
Emerald,WI,Wisconsin,45.0833,-92.2579
Schofield,WI,Wisconsin,44.915,-89.6153
Menasha,WI,Wisconsin,44.2125,-88.4271
Elmwood,WI,Wisconsin,44.7799,-92.1491
Arkansaw,WI,Wisconsin,44.6334,-92.0222
Summit Lake,WI,Wisconsin,45.3759,-89.2045
Fenwood,WI,Wisconsin,44.8658,-90.0146
Waupun,WI,Wisconsin,43.6315,-88.7379
Babcock,WI,Wisconsin,44.3044,-90.1076
Mequon,WI,Wisconsin,43.2352,-87.9838
Embarrass,WI,Wisconsin,44.6684,-88.7037
De Pere,WI,Wisconsin,44.4313,-88.0793
Waterloo,WI,Wisconsin,43.1835,-88.99
Nelsonville,WI,Wisconsin,44.4937,-89.3091
Biron,WI,Wisconsin,44.4281,-89.766
Kendall,WI,Wisconsin,43.7926,-90.3677
Markesan,WI,Wisconsin,43.7099,-88.9907
Pewaukee,WI,Wisconsin,43.0701,-88.2411
Sharon,WI,Wisconsin,42.5048,-88.7395
Bayfield,WI,Wisconsin,46.8141,-90.8226
Granton,WI,Wisconsin,44.5887,-90.4615
Evansville,WI,Wisconsin,42.7781,-89.2967
Townsend,WI,Wisconsin,45.3242,-88.5903
Hartland,WI,Wisconsin,43.1027,-88.34
Neenah,WI,Wisconsin,44.167,-88.4763
Walworth,WI,Wisconsin,42.5305,-88.594
Lublin,WI,Wisconsin,45.0749,-90.7238
Jim Falls,WI,Wisconsin,45.0472,-91.2712
Francis Creek,WI,Wisconsin,44.2005,-87.7208
Woodford,WI,Wisconsin,42.6476,-89.8598
Roberts,WI,Wisconsin,44.9732,-92.5505
Clear Lake,WI,Wisconsin,45.2492,-92.2675
Cecil,WI,Wisconsin,44.8108,-88.4485
Lake Wissota,WI,Wisconsin,44.922,-91.3015
Prairie du Chien,WI,Wisconsin,43.0434,-91.1383
Dallas,WI,Wisconsin,45.2591,-91.8142
Pulaski,WI,Wisconsin,44.6684,-88.2353
Powers Lake,WI,Wisconsin,42.5395,-88.2935
Alma Center,WI,Wisconsin,44.437,-90.9128
Lac du Flambeau,WI,Wisconsin,45.9696,-89.8995
Little Round Lake,WI,Wisconsin,45.9697,-91.3671
Pigeon Falls,WI,Wisconsin,44.4246,-91.2082
Cedarburg,WI,Wisconsin,43.2991,-87.9887
Shawano,WI,Wisconsin,44.7749,-88.5844
Gilman,WI,Wisconsin,45.1661,-90.8072
Fall Creek,WI,Wisconsin,44.7639,-91.2783
Durand,WI,Wisconsin,44.627,-91.9607
Chief Lake,WI,Wisconsin,45.9213,-91.3312
Dodge,WI,Wisconsin,44.1345,-91.5485
Marshfield,WI,Wisconsin,44.6627,-90.1728
Stoughton,WI,Wisconsin,42.9236,-89.2219
Gillett,WI,Wisconsin,44.8897,-88.3063
Wyocena,WI,Wisconsin,43.4931,-89.3098
Denmark,WI,Wisconsin,44.3492,-87.8313
Glendale,WI,Wisconsin,43.1288,-87.9277
Birchwood,WI,Wisconsin,45.6577,-91.5507
Waukau,WI,Wisconsin,43.9862,-88.7706
Oconomowoc,WI,Wisconsin,43.0994,-88.4951
Sister Bay,WI,Wisconsin,45.1835,-87.1271
Lake Nebagamon,WI,Wisconsin,46.512,-91.6995
Melrose,WI,Wisconsin,44.1316,-90.9969
St. Nazianz,WI,Wisconsin,44.0067,-87.9246
Montfort,WI,Wisconsin,42.9697,-90.433
Bristol,WI,Wisconsin,42.5378,-88.0149
Highland,WI,Wisconsin,43.0475,-90.3801
Lake Wisconsin,WI,Wisconsin,43.3782,-89.5763
Ellsworth,WI,Wisconsin,44.7364,-92.4806
Hawkins,WI,Wisconsin,45.5114,-90.7148
Richfield,WI,Wisconsin,43.2372,-88.2413
Orfordville,WI,Wisconsin,42.6294,-89.2572
Footville,WI,Wisconsin,42.6715,-89.2084
Plain,WI,Wisconsin,43.2779,-90.0423
Cashton,WI,Wisconsin,43.7413,-90.7866
Waunakee,WI,Wisconsin,43.1833,-89.4433
Mayville,WI,Wisconsin,43.4986,-88.5475
Combined Locks,WI,Wisconsin,44.2642,-88.3064
Bayside,WI,Wisconsin,43.1827,-87.9017
Neshkoro,WI,Wisconsin,43.9652,-89.2157
Unity,WI,Wisconsin,44.8511,-90.3131
Windsor,WI,Wisconsin,43.2406,-89.2952
Grafton,WI,Wisconsin,43.3204,-87.9481
Baraboo,WI,Wisconsin,43.4697,-89.7378
Ridgeway,WI,Wisconsin,42.9985,-89.993
Bloomfield,WI,Wisconsin,42.5488,-88.352
Onalaska,WI,Wisconsin,43.888,-91.2074
Almena,WI,Wisconsin,45.4149,-92.0384
Odanah,WI,Wisconsin,46.6121,-90.6992
Slinger,WI,Wisconsin,43.3317,-88.2799
Fairwater,WI,Wisconsin,43.7424,-88.868
Lake Camelot,WI,Wisconsin,44.2147,-89.7623
Belgium,WI,Wisconsin,43.5019,-87.8476
Houlton,WI,Wisconsin,45.0607,-92.7904
Tennyson,WI,Wisconsin,42.6907,-90.6868
Ladysmith,WI,Wisconsin,45.4606,-91.0972
Cedar Grove,WI,Wisconsin,43.5681,-87.8243
Leopolis,WI,Wisconsin,44.7654,-88.8447
Woodville,WI,Wisconsin,44.9483,-92.2851
Lake Lorraine,WI,Wisconsin,42.733,-88.7374
Cleveland,WI,Wisconsin,43.9177,-87.7469
Union Center,WI,Wisconsin,43.6826,-90.2634
Gibbsville,WI,Wisconsin,43.6521,-87.8317
Black Creek,WI,Wisconsin,44.4741,-88.4507
Twin Lakes,WI,Wisconsin,42.5192,-88.2489
South Wayne,WI,Wisconsin,42.5671,-89.8763
Mukwonago,WI,Wisconsin,42.8566,-88.3269
Thiensville,WI,Wisconsin,43.2361,-87.9784
Stratford,WI,Wisconsin,44.8009,-90.0722
Neosho,WI,Wisconsin,43.3101,-88.5193
Amherst Junction,WI,Wisconsin,44.4687,-89.3168
Kingston,WI,Wisconsin,43.6935,-89.1304
Weston,WI,Wisconsin,44.8906,-89.5487
Park Ridge,WI,Wisconsin,44.52,-89.5463
Palmyra,WI,Wisconsin,42.8811,-88.6
Dresser,WI,Wisconsin,45.3617,-92.6344
Humbird,WI,Wisconsin,44.5295,-90.8862
Kronenwetter,WI,Wisconsin,44.8164,-89.5807
Bonduel,WI,Wisconsin,44.7383,-88.4476
Whittlesey,WI,Wisconsin,45.2206,-90.3232
Polonia,WI,Wisconsin,44.5756,-89.4118
Lake Koshkonong,WI,Wisconsin,42.8838,-88.9424
Westfield,WI,Wisconsin,43.8851,-89.4926
Arbovale,WV,West Virginia,38.4353,-79.8116
Bruno,WV,West Virginia,37.688,-81.8737
Summersville,WV,West Virginia,38.2865,-80.841
Aurora,WV,West Virginia,39.3254,-79.5546
Oceana,WV,West Virginia,37.6927,-81.6324
Pinch,WV,West Virginia,38.4062,-81.481
Roderfield,WV,West Virginia,37.4501,-81.7029
Poca,WV,West Virginia,38.473,-81.8124
Berwind,WV,West Virginia,37.266,-81.6633
Philippi,WV,West Virginia,39.1487,-80.0417
Pineville,WV,West Virginia,37.5845,-81.5354
Wellsburg,WV,West Virginia,40.2811,-80.6102
Maybeury,WV,West Virginia,37.3675,-81.3572
Farmington,WV,West Virginia,39.5119,-80.2514
Middleway,WV,West Virginia,39.3032,-77.981
Shannondale,WV,West Virginia,39.2123,-77.8105
Welch,WV,West Virginia,37.4455,-81.5721
Williamstown,WV,West Virginia,39.4,-81.4527
Hamlin,WV,West Virginia,38.2805,-82.1086
North Hills,WV,West Virginia,39.3149,-81.5086
Follansbee,WV,West Virginia,40.3385,-80.5975
West Milford,WV,West Virginia,39.2044,-80.4034
Granville,WV,West Virginia,39.6471,-79.9974
Hillsboro,WV,West Virginia,38.1353,-80.2136
Elizabeth,WV,West Virginia,39.0617,-81.3976
Hambleton,WV,West Virginia,39.0814,-79.6455
Kenova,WV,West Virginia,38.4026,-82.5821
West Union,WV,West Virginia,39.2963,-80.7751
Triadelphia,WV,West Virginia,40.0483,-80.6229
Middlebourne,WV,West Virginia,39.4947,-80.907
Fairmont,WV,West Virginia,39.4768,-80.1491
West Logan,WV,West Virginia,37.8679,-81.9906
Mason,WV,West Virginia,39.0183,-82.0314
Rhodell,WV,West Virginia,37.6095,-81.305
Inwood,WV,West Virginia,39.3538,-78.0552
Smithfield,WV,West Virginia,39.5011,-80.5554
Salt Rock,WV,West Virginia,38.3243,-82.2172
Jane Lew,WV,West Virginia,39.11,-80.4085
Rand,WV,West Virginia,38.2817,-81.5654
Chattaroy,WV,West Virginia,37.7062,-82.2737
Greenview,WV,West Virginia,37.9963,-81.8202
Harrisville,WV,West Virginia,39.2104,-81.0485
Danville,WV,West Virginia,38.0808,-81.8342
Mannington,WV,West Virginia,39.5274,-80.3408
Princeton,WV,West Virginia,37.3688,-81.0961
Gilbert Creek,WV,West Virginia,37.5697,-81.8906
Tunnelton,WV,West Virginia,39.3929,-79.7466
Dailey,WV,West Virginia,38.7968,-79.8967
Enterprise,WV,West Virginia,39.4197,-80.2834
Red Jacket,WV,West Virginia,37.6488,-82.1317
Shrewsbury,WV,West Virginia,38.2079,-81.4672
Falling Waters,WV,West Virginia,39.5637,-77.8874
Pickens,WV,West Virginia,38.6558,-80.216
Scarbro,WV,West Virginia,37.9504,-81.1666
Bluefield,WV,West Virginia,37.2608,-81.2143
Chesapeake,WV,West Virginia,38.2233,-81.5363
Belington,WV,West Virginia,39.022,-79.9383
Beards Fork,WV,West Virginia,38.0645,-81.2278
Burnsville,WV,West Virginia,38.8579,-80.6539
Mabscott,WV,West Virginia,37.7694,-81.2133
Prince,WV,West Virginia,37.8593,-81.0722
Winfield,WV,West Virginia,38.5285,-81.8861
Peterstown,WV,West Virginia,37.3991,-80.795
St. George,WV,West Virginia,39.1662,-79.6987
Apple Grove,WV,West Virginia,38.6663,-82.1707
Whitesville,WV,West Virginia,37.9825,-81.5366
Brandonville,WV,West Virginia,39.6671,-79.6277
Union,WV,West Virginia,37.5905,-80.5419
Moorefield,WV,West Virginia,39.0674,-78.9624
Tioga,WV,West Virginia,38.422,-80.6548
Grant Town,WV,West Virginia,39.559,-80.1772
Belle,WV,West Virginia,38.2337,-81.5387
Matewan,WV,West Virginia,37.6259,-82.17
Bruceton Mills,WV,West Virginia,39.6594,-79.6406
Omar,WV,West Virginia,37.7583,-81.9975
Glenville,WV,West Virginia,38.9379,-80.8339
Wardensville,WV,West Virginia,39.0768,-78.5932
Spencer,WV,West Virginia,38.8025,-81.3531
Cross Lanes,WV,West Virginia,38.4351,-81.7706
Lubeck,WV,West Virginia,39.2276,-81.6265
Wiley Ford,WV,West Virginia,39.6151,-78.7615
Gassaway,WV,West Virginia,38.6702,-80.7717
Barrackville,WV,West Virginia,39.5013,-80.1696
Keyser,WV,West Virginia,39.4394,-78.9822
Brandywine,WV,West Virginia,38.6219,-79.2413
Womelsdorf,WV,West Virginia,38.8981,-79.9636
Verdunville,WV,West Virginia,37.8532,-82.0603
New Haven,WV,West Virginia,38.9876,-81.9655
Bolt,WV,West Virginia,37.7623,-81.4189
Wolf Summit,WV,West Virginia,39.2822,-80.462
Bath,WV,West Virginia,39.6247,-78.2275
War,WV,West Virginia,37.304,-81.6802
Helvetia,WV,West Virginia,38.7058,-80.1993
Hartford City,WV,West Virginia,38.9978,-81.9905
Mount Hope,WV,West Virginia,37.8987,-81.1745
Beech Bottom,WV,West Virginia,40.2181,-80.6588
Deep Water,WV,West Virginia,38.1217,-81.2528
Boomer,WV,West Virginia,38.1516,-81.2825
Burlington,WV,West Virginia,39.337,-78.9223
Mullens,WV,West Virginia,37.5811,-81.3855
Gallipolis Ferry,WV,West Virginia,38.7745,-82.2041
Rowlesburg,WV,West Virginia,39.3482,-79.6764
Carpendale,WV,West Virginia,39.6278,-78.7896
Kingwood,WV,West Virginia,39.4719,-79.6822
Ellenboro,WV,West Virginia,39.2678,-81.0551
Sissonville,WV,West Virginia,38.5042,-81.6398
Franklin,WV,West Virginia,38.6452,-79.3331
Durbin,WV,West Virginia,38.5471,-79.8278
Switzer,WV,West Virginia,37.7879,-81.9865
Big Sandy,WV,West Virginia,37.4608,-81.705
Athens,WV,West Virginia,37.423,-81.0148
New Richmond,WV,West Virginia,37.5735,-81.487
Handley,WV,West Virginia,38.1863,-81.3673
Glen Fork,WV,West Virginia,37.6982,-81.5362
Hinton,WV,West Virginia,37.6652,-80.8828
Albright,WV,West Virginia,39.4937,-79.6399
Carolina,WV,West Virginia,39.4795,-80.2728
Paden City,WV,West Virginia,39.6035,-80.9351
Iaeger,WV,West Virginia,37.4642,-81.8111
Springfield,WV,West Virginia,39.4449,-78.6977
Kopperston,WV,West Virginia,37.7502,-81.5764
Bartow,WV,West Virginia,38.5422,-79.7859
White Sulphur Springs,WV,West Virginia,37.7981,-80.3003
Man,WV,West Virginia,37.7521,-81.8922
Alderson,WV,West Virginia,37.7277,-80.6436
Hilltop,WV,West Virginia,37.9392,-81.1527
Comfort,WV,West Virginia,38.1317,-81.6102
Elk Garden,WV,West Virginia,39.3862,-79.1556
Wallace,WV,West Virginia,39.4072,-80.4911
Nettie,WV,West Virginia,38.2183,-80.6889
Twilight,WV,West Virginia,37.9252,-81.6177
Grantsville,WV,West Virginia,38.9204,-81.0934
Cairo,WV,West Virginia,39.2067,-81.1544
Bradley,WV,West Virginia,37.8675,-81.2046
Monaville,WV,West Virginia,37.8136,-81.9915
Blacksville,WV,West Virginia,39.7175,-80.2146
Ripley,WV,West Virginia,38.8201,-81.7091
Clendenin,WV,West Virginia,38.4859,-81.3503
Thurmond,WV,West Virginia,37.961,-81.0796
Charleston,WV,West Virginia,38.3484,-81.6323
Bradshaw,WV,West Virginia,37.3534,-81.8012
Flemington,WV,West Virginia,39.2666,-80.1286
Holden,WV,West Virginia,37.8238,-82.0788
Gauley Bridge,WV,West Virginia,38.1681,-81.2039
Milton,WV,West Virginia,38.4353,-82.1376
Cowen,WV,West Virginia,38.411,-80.5542
Vienna,WV,West Virginia,39.3238,-81.5383
Sophia,WV,West Virginia,37.7116,-81.2524
Capon Bridge,WV,West Virginia,39.2998,-78.4337
Prosperity,WV,West Virginia,37.8384,-81.1987
Martinsburg,WV,West Virginia,39.4582,-77.9776
Tornado,WV,West Virginia,38.3369,-81.8551
Hometown,WV,West Virginia,38.5288,-81.8552
Mount Gay-Shamrock,WV,West Virginia,37.8512,-82.0229
Madison,WV,West Virginia,38.0632,-81.8046
St. Albans,WV,West Virginia,38.3769,-81.8198
Shinnston,WV,West Virginia,39.3923,-80.2989
Fairview,WV,West Virginia,39.5927,-80.2469
Sand Fork,WV,West Virginia,38.9154,-80.7477
Kermit,WV,West Virginia,37.8425,-82.4086
Page,WV,West Virginia,38.0506,-81.2717
Mill Creek,WV,West Virginia,38.7319,-79.9725
Falling Spring,WV,West Virginia,37.9926,-80.3576
Bayard,WV,West Virginia,39.2711,-79.3662
Westover,WV,West Virginia,39.6324,-79.9773
Boaz,WV,West Virginia,39.3674,-81.4853
Masontown,WV,West Virginia,39.5512,-79.8003
Benwood,WV,West Virginia,40.0139,-80.7328
Washington,WV,West Virginia,39.2422,-81.6679
Beaver,WV,West Virginia,37.7356,-81.15
Pax,WV,West Virginia,37.9097,-81.2648
New Martinsville,WV,West Virginia,39.6636,-80.8569
Stanaford,WV,West Virginia,37.8156,-81.1492
Jefferson,WV,West Virginia,38.3701,-81.7708
Rainelle,WV,West Virginia,37.9678,-80.7717
Kimberly,WV,West Virginia,38.1407,-81.2967
Helen,WV,West Virginia,37.6374,-81.313
Justice,WV,West Virginia,37.5992,-81.8381
Moundsville,WV,West Virginia,39.9221,-80.7422
MacArthur,WV,West Virginia,37.7553,-81.2078
Fairlea,WV,West Virginia,37.7756,-80.4582
Clay,WV,West Virginia,38.4662,-81.0814
Beverly,WV,West Virginia,38.8442,-79.8717
Sutton,WV,West Virginia,38.6663,-80.7116
Dunbar,WV,West Virginia,38.3688,-81.7345
Reedsville,WV,West Virginia,39.5102,-79.8006
Vivian,WV,West Virginia,37.4172,-81.4923
Oakvale,WV,West Virginia,37.3323,-80.9704
Pullman,WV,West Virginia,39.188,-80.949
Lost Creek,WV,West Virginia,39.1627,-80.3484
Matheny,WV,West Virginia,37.664,-81.5985
Raysal,WV,West Virginia,37.3367,-81.7712
Mallory,WV,West Virginia,37.7274,-81.8206
Salem,WV,West Virginia,39.2849,-80.5645
Flatwoods,WV,West Virginia,38.7186,-80.654
Pea Ridge,WV,West Virginia,38.4154,-82.3188
Parsons,WV,West Virginia,39.0942,-79.6786
Glen Dale,WV,West Virginia,39.9466,-80.7564
Crumpler,WV,West Virginia,37.4262,-81.3313
Cameron,WV,West Virginia,39.828,-80.5693
Gary,WV,West Virginia,37.3621,-81.5408
Lesage,WV,West Virginia,38.487,-82.293
Waverly,WV,West Virginia,39.3328,-81.3813
Reader,WV,West Virginia,39.5689,-80.7316
Marlinton,WV,West Virginia,38.2247,-80.0906
Bridgeport,WV,West Virginia,39.3036,-80.2477
Beckley,WV,West Virginia,37.7877,-81.184
West Liberty,WV,West Virginia,40.1647,-80.5972
Huttonsville,WV,West Virginia,38.7138,-79.9766
Quinwood,WV,West Virginia,38.0586,-80.706
Hico,WV,West Virginia,38.1166,-81.0112
Anawalt,WV,West Virginia,37.3364,-81.4407
Racine,WV,West Virginia,38.1398,-81.6541
Idamay,WV,West Virginia,39.493,-80.2572
Cass,WV,West Virginia,38.3962,-79.9191
Barboursville,WV,West Virginia,38.4061,-82.297
Rossmore,WV,West Virginia,37.805,-81.9923
Shenandoah Junction,WV,West Virginia,39.3531,-77.8375
West Hamlin,WV,West Virginia,38.2802,-82.194
Paw Paw,WV,West Virginia,39.5313,-78.4553
Valley Bend,WV,West Virginia,38.7694,-79.928
Petersburg,WV,West Virginia,38.9957,-79.1276
Henderson,WV,West Virginia,38.8304,-82.136
Piney View,WV,West Virginia,37.835,-81.1275
Ranson,WV,West Virginia,39.325,-77.8667
Green Bank,WV,West Virginia,38.4267,-79.8344
Auburn,WV,West Virginia,39.0961,-80.8562
Logan,WV,West Virginia,37.8509,-81.9857
Marmet,WV,West Virginia,38.2458,-81.5711
Chapmanville,WV,West Virginia,37.9726,-82.0215
Accoville,WV,West Virginia,37.7652,-81.827
Green Spring,WV,West Virginia,39.5241,-78.6302
Matoaka,WV,West Virginia,37.4182,-81.2417
Eleanor,WV,West Virginia,38.5374,-81.9256
Powellton,WV,West Virginia,38.0941,-81.322
Sylvester,WV,West Virginia,38.008,-81.5623
Pine Grove,WV,West Virginia,39.5642,-80.6825
Belmont,WV,West Virginia,39.3786,-81.2635
Ronceverte,WV,West Virginia,37.7504,-80.4715
Hundred,WV,West Virginia,39.6836,-80.4576
Piedmont,WV,West Virginia,39.4778,-79.0466
Smithers,WV,West Virginia,38.1768,-81.3048
Newell,WV,West Virginia,40.6179,-80.5999
Mitchell Heights,WV,West Virginia,37.9088,-81.9867
Harman,WV,West Virginia,38.9211,-79.5246
Harts,WV,West Virginia,38.0343,-82.129
Bartley,WV,West Virginia,37.3373,-81.7334
Pennsboro,WV,West Virginia,39.2874,-80.9754
Valley Grove,WV,West Virginia,40.0901,-80.569
Chester,WV,West Virginia,40.6129,-80.5627
Coal Fork,WV,West Virginia,38.3185,-81.523
Lewisburg,WV,West Virginia,37.8096,-80.4327
Thomas,WV,West Virginia,39.1458,-79.4958
Charles Town,WV,West Virginia,39.2745,-77.8632
Big Creek,WV,West Virginia,38.0054,-82.0361
Wayne,WV,West Virginia,38.2234,-82.4428
South Charleston,WV,West Virginia,38.3482,-81.711
Anmoore,WV,West Virginia,39.2611,-80.2862
Brenton,WV,West Virginia,37.6004,-81.635
Glen Ferris,WV,West Virginia,38.1518,-81.2185
Wheeling,WV,West Virginia,40.0751,-80.6951
Harpers Ferry,WV,West Virginia,39.3251,-77.7409
Bethlehem,WV,West Virginia,40.0451,-80.6899
Eccles,WV,West Virginia,37.7817,-81.2648
Bethany,WV,West Virginia,40.2053,-80.5629
Meadow Bridge,WV,West Virginia,37.8613,-80.8561
Lashmeet,WV,West Virginia,37.4228,-81.1967
Pleasant Valley,WV,West Virginia,39.4505,-80.1552
Glen White,WV,West Virginia,37.73,-81.2797
Mount Carbon,WV,West Virginia,38.1443,-81.289
Leon,WV,West Virginia,38.7471,-81.9555
Newburg,WV,West Virginia,39.3889,-79.8536
Bolivar,WV,West Virginia,39.3242,-77.7517
Morgantown,WV,West Virginia,39.6379,-79.9468
Henlawson,WV,West Virginia,37.9,-81.982
Century,WV,West Virginia,39.1004,-80.1883
Kistler,WV,West Virginia,37.7656,-81.8578
Northfork,WV,West Virginia,37.4196,-81.4274
Cucumber,WV,West Virginia,37.2786,-81.6241
Teays Valley,WV,West Virginia,38.4482,-81.9239
Corinne,WV,West Virginia,37.571,-81.3614
Lester,WV,West Virginia,37.7349,-81.3015
Bancroft,WV,West Virginia,38.5107,-81.8418
Robinette,WV,West Virginia,37.7855,-81.7879
Clarksburg,WV,West Virginia,39.2863,-80.323
Windsor Heights,WV,West Virginia,40.1914,-80.6647
Glasgow,WV,West Virginia,38.2109,-81.4218
Buckhannon,WV,West Virginia,38.9927,-80.2282
Clearview,WV,West Virginia,40.1399,-80.6899
Bramwell,WV,West Virginia,37.327,-81.3129
Cedar Grove,WV,West Virginia,38.2223,-81.4379
Delbarton,WV,West Virginia,37.7052,-82.1861
Blennerhassett,WV,West Virginia,39.2562,-81.6316
Brookhaven,WV,West Virginia,39.6062,-79.8812
Chauncey,WV,West Virginia,37.7652,-81.9834
Junior,WV,West Virginia,38.9783,-79.9506
Parcoal,WV,West Virginia,38.4604,-80.3731
Bluewell,WV,West Virginia,37.3144,-81.2581
Whitmer,WV,West Virginia,38.8148,-79.5451
Lumberport,WV,West Virginia,39.3742,-80.3484
Rupert,WV,West Virginia,37.9649,-80.687
East Dailey,WV,West Virginia,38.7795,-79.8911
Belva,WV,West Virginia,38.2327,-81.1894
Fayetteville,WV,West Virginia,38.0622,-81.1084
Buffalo,WV,West Virginia,38.6117,-81.982
Glen Jean,WV,West Virginia,37.9271,-81.1532
Friendly,WV,West Virginia,39.5136,-81.0619
Crum,WV,West Virginia,37.9095,-82.447
Monongah,WV,West Virginia,39.4598,-80.2185
Hepzibah,WV,West Virginia,39.3309,-80.3341
Birch River,WV,West Virginia,38.4961,-80.7497
Stonewood,WV,West Virginia,39.2501,-80.3054
Ghent,WV,West Virginia,37.6221,-81.1057
Cheat Lake,WV,West Virginia,39.6672,-79.8565
Hedgesville,WV,West Virginia,39.5544,-77.9944
Reedy,WV,West Virginia,38.8997,-81.4264
Oak Hill,WV,West Virginia,37.9844,-81.1277
Big Chimney,WV,West Virginia,38.4119,-81.5374
Lavalette,WV,West Virginia,38.3224,-82.4479
Elkview,WV,West Virginia,38.4327,-81.4771
Charlton Heights,WV,West Virginia,38.1255,-81.2333
Shady Spring,WV,West Virginia,37.7033,-81.0912
Point Pleasant,WV,West Virginia,38.8529,-82.1303
Worthington,WV,West Virginia,39.4568,-80.2636
Itmann,WV,West Virginia,37.5734,-81.4146
Ravenswood,WV,West Virginia,38.9561,-81.7619
Dixie,WV,West Virginia,38.251,-81.1943
Fort Gay,WV,West Virginia,38.1203,-82.5952
Mineralwells,WV,West Virginia,39.1807,-81.513
Huntington,WV,West Virginia,38.4109,-82.4344
Culloden,WV,West Virginia,38.4159,-82.0722
Frank,WV,West Virginia,38.5462,-79.808
Despard,WV,West Virginia,39.2874,-80.3158
Davis,WV,West Virginia,39.1266,-79.4609
Covel,WV,West Virginia,37.4906,-81.3194
East Bank,WV,West Virginia,38.2153,-81.444
Nitro,WV,West Virginia,38.4119,-81.8194
Weirton,WV,West Virginia,40.406,-80.5671
Camden-on-Gauley,WV,West Virginia,38.3686,-80.5973
Terra Alta,WV,West Virginia,39.4442,-79.5435
Huntersville,WV,West Virginia,38.1859,-80.0152
Williamson,WV,West Virginia,37.6741,-82.271
Stollings,WV,West Virginia,37.8409,-81.9624
Pratt,WV,West Virginia,38.2082,-81.3868
Parkersburg,WV,West Virginia,39.2624,-81.5419
Montgomery,WV,West Virginia,38.1741,-81.3241
Pentress,WV,West Virginia,39.7101,-80.1685
Spelter,WV,West Virginia,39.3431,-80.3163
Ceredo,WV,West Virginia,38.3951,-82.554
Cassville,WV,West Virginia,39.675,-80.0678
Littleton,WV,West Virginia,39.7024,-80.5147
Crab Orchard,WV,West Virginia,37.741,-81.2299
Prichard,WV,West Virginia,38.2362,-82.6028
Pageton,WV,West Virginia,37.3599,-81.4648
Amherstdale,WV,West Virginia,37.7799,-81.8183
New Cumberland,WV,West Virginia,40.5072,-80.6115
Ansted,WV,West Virginia,38.1357,-81.1038
Shepherdstown,WV,West Virginia,39.4318,-77.8048
Craigsville,WV,West Virginia,38.3246,-80.645
Bowden,WV,West Virginia,38.9092,-79.7089
Alum Creek,WV,West Virginia,38.2876,-81.833
Chelyan,WV,West Virginia,38.1958,-81.4928
Richwood,WV,West Virginia,38.2221,-80.5363
Gilbert,WV,West Virginia,37.6142,-81.8689
Daniels,WV,West Virginia,37.724,-81.1267
Neibert,WV,West Virginia,37.7861,-81.9341
Hooverson Heights,WV,West Virginia,40.319,-80.5825
Bergoo,WV,West Virginia,38.4851,-80.2981
Kimball,WV,West Virginia,37.4268,-81.5078
Rachel,WV,West Virginia,39.5207,-80.2997
Ridgeley,WV,West Virginia,39.6432,-78.7711
Hendricks,WV,West Virginia,39.0754,-79.6299
Elkins,WV,West Virginia,38.9237,-79.8541
Nutter Fort,WV,West Virginia,39.2604,-80.3265
Grafton,WV,West Virginia,39.341,-80.0161
Kincaid,WV,West Virginia,38.0381,-81.2759
Fort Ashby,WV,West Virginia,39.4973,-78.7646
Star City,WV,West Virginia,39.6587,-79.9868
McConnell,WV,West Virginia,37.8282,-81.9652
Gypsy,WV,West Virginia,39.3648,-80.307
Galloway,WV,West Virginia,39.2339,-80.1277
Montcalm,WV,West Virginia,37.3516,-81.2515
Hurricane,WV,West Virginia,38.4294,-82.0169
Keystone,WV,West Virginia,37.4158,-81.4463
Valley Head,WV,West Virginia,38.5472,-80.032
White Hall,WV,West Virginia,39.4239,-80.1889
Great Cacapon,WV,West Virginia,39.6144,-78.2857
McMechen,WV,West Virginia,39.9854,-80.7335
St. Marys,WV,West Virginia,39.4023,-81.1951
Van,WV,West Virginia,37.9713,-81.7138
Coal City,WV,West Virginia,37.6776,-81.218
Sarah Ann,WV,West Virginia,37.7086,-81.9881
Bud,WV,West Virginia,37.5329,-81.3821
Falls View,WV,West Virginia,38.1297,-81.2539
Addison,WV,West Virginia,38.4782,-80.4082
Romney,WV,West Virginia,39.3454,-78.7564
Weston,WV,West Virginia,39.039,-80.4616
Sistersville,WV,West Virginia,39.5599,-80.9987
Jacksonburg,WV,West Virginia,39.5304,-80.6404
Fenwick,WV,West Virginia,38.2288,-80.5805
Rivesville,WV,West Virginia,39.5319,-80.1205
Davy,WV,West Virginia,37.4759,-81.6474
Montrose,WV,West Virginia,39.0674,-79.8144
Brush Fork,WV,West Virginia,37.2805,-81.245
Paauilo,HI,Hawaii,20.0397,-155.3696
Discovery Harbour,HI,Hawaii,19.0415,-155.6254
Haena,HI,Hawaii,22.2186,-159.561
Ualapue,HI,Hawaii,21.0704,-156.8355
Waikane,HI,Hawaii,21.4921,-157.8721
Kapalua,HI,Hawaii,20.9959,-156.6418
Nanakuli,HI,Hawaii,21.3892,-158.1445
Puhi,HI,Hawaii,21.9622,-159.3918
West Loch Estate,HI,Hawaii,21.3617,-158.0246
Ewa Gentry,HI,Hawaii,21.3344,-158.0262
Keaau,HI,Hawaii,19.6156,-155.0372
Puako,HI,Hawaii,19.9389,-155.8604
Hauula,HI,Hawaii,21.6111,-157.9118
Omao,HI,Hawaii,21.9236,-159.4814
Makakilo,HI,Hawaii,21.3591,-158.0813
Schofield Barracks,HI,Hawaii,21.4936,-158.0617
Ewa Villages,HI,Hawaii,21.3418,-158.039
Kaaawa,HI,Hawaii,21.5485,-157.8534
Heeia,HI,Hawaii,21.4211,-157.8203
Waipahu,HI,Hawaii,21.3858,-158.0103
Kahului,HI,Hawaii,20.8715,-156.4603
Kahuku,HI,Hawaii,21.6793,-157.9473
Pearl City,HI,Hawaii,21.4031,-157.9566
Ahuimanu,HI,Hawaii,21.4379,-157.8404
Kalaheo,HI,Hawaii,21.9159,-159.5236
Maunaloa,HI,Hawaii,21.1334,-157.2123
Captain Cook,HI,Hawaii,19.4995,-155.8937
Kapaau,HI,Hawaii,20.2267,-155.805
Haiku-Pauwela,HI,Hawaii,20.9156,-156.3022
Hawi,HI,Hawaii,20.2392,-155.8305
Mililani Town,HI,Hawaii,21.4465,-158.0147
Wainiha,HI,Hawaii,22.1983,-159.5456
Papaikou,HI,Hawaii,19.7917,-155.0962
Kawela Bay,HI,Hawaii,21.6991,-158.0026
Honomu,HI,Hawaii,19.8695,-155.1124
Kahaluu,HI,Hawaii,21.4576,-157.8453
Halawa,HI,Hawaii,21.3754,-157.9185
Pahala,HI,Hawaii,19.1995,-155.4793
Lahaina,HI,Hawaii,20.8848,-156.6618
Hanalei,HI,Hawaii,22.2041,-159.4977
Honokaa,HI,Hawaii,20.0746,-155.4656
Volcano,HI,Hawaii,19.48,-155.2487
Pupukea,HI,Hawaii,21.6511,-158.0436
Laie,HI,Hawaii,21.6443,-157.928
Hilo,HI,Hawaii,19.6886,-155.0864
Hawaiian Beaches,HI,Hawaii,19.5423,-154.9223
Kaunakakai,HI,Hawaii,21.0905,-156.9981
Waimea,HI,Hawaii,20.0124,-155.6378
Punaluu,HI,Hawaii,21.5811,-157.8901
Makaha Valley,HI,Hawaii,21.4842,-158.1854
Kurtistown,HI,Hawaii,19.5833,-155.0721
Wailua,HI,Hawaii,22.055,-159.3406
Kapaa,HI,Hawaii,22.091,-159.352
Kaneohe Station,HI,Hawaii,21.4451,-157.7515
Pakala Village,HI,Hawaii,21.9445,-159.6436
Honolulu,HI,Hawaii,21.3294,-157.846
Wailea,HI,Hawaii,20.6873,-156.4291
Haleiwa,HI,Hawaii,21.5871,-158.1074
Fern Forest,HI,Hawaii,19.4648,-155.1324
Kahaluu-Keauhou,HI,Hawaii,19.5726,-155.958
Waimalu,HI,Hawaii,21.3913,-157.9345
Paia,HI,Hawaii,20.9062,-156.3678
Princeville,HI,Hawaii,22.2177,-159.4809
Waiohinu,HI,Hawaii,19.0716,-155.6143
Kukuihaele,HI,Hawaii,20.1195,-155.5654
Kapolei,HI,Hawaii,21.3403,-158.0665
Eleele,HI,Hawaii,21.9088,-159.5801
Paukaa,HI,Hawaii,19.7625,-155.0948
Kalaeloa,HI,Hawaii,21.3215,-158.0812
Whitmore Village,HI,Hawaii,21.512,-158.0273
Ewa Beach,HI,Hawaii,21.3181,-158.0073
Pahoa,HI,Hawaii,19.4961,-154.9454
Lihue,HI,Hawaii,21.9728,-159.3541
Wheeler AFB,HI,Hawaii,21.4735,-158.0346
Waianae,HI,Hawaii,21.4569,-158.1759
Fern Acres,HI,Hawaii,19.5082,-155.0785
Kaanapali,HI,Hawaii,20.9276,-156.6795
Haliimaile,HI,Hawaii,20.8671,-156.3381
Eden Roc,HI,Hawaii,19.4917,-155.0958
Honalo,HI,Hawaii,19.5787,-155.902
Maalaea,HI,Hawaii,20.8047,-156.4898
Launiupoko,HI,Hawaii,20.8541,-156.6424
Waikele,HI,Hawaii,21.4025,-158.0058
Aiea,HI,Hawaii,21.3865,-157.9232
Keokea,HI,Hawaii,20.7211,-156.3625
Nanawale Estates,HI,Hawaii,19.5042,-154.9117
Koloa,HI,Hawaii,21.903,-159.461
Ko Olina,HI,Hawaii,21.3378,-158.1188
Hawaiian Ocean View,HI,Hawaii,19.0959,-155.7749
Waikapu,HI,Hawaii,20.8391,-156.5221
Waimanalo,HI,Hawaii,21.3421,-157.7303
Honaunau-Napoopoo,HI,Hawaii,19.4538,-155.8588
East Honolulu,HI,Hawaii,21.2975,-157.7211
Hanapepe,HI,Hawaii,21.914,-159.5874
Hana,HI,Hawaii,20.772,-156.0107
Hawaiian Paradise Park,HI,Hawaii,19.5828,-154.9693
Naalehu,HI,Hawaii,19.0698,-155.5751
Waipio,HI,Hawaii,21.4143,-157.9966
Kekaha,HI,Hawaii,21.9684,-159.7141
Kualapuu,HI,Hawaii,21.1563,-157.0591
Kihei,HI,Hawaii,20.7653,-156.4454
Mountain View,HI,Hawaii,19.5358,-155.1596
Kaumakani,HI,Hawaii,21.9187,-159.6241
Olowalu,HI,Hawaii,20.8222,-156.6169
Wailua Homesteads,HI,Hawaii,22.065,-159.3771
Makawao,HI,Hawaii,20.848,-156.319
Pukalani,HI,Hawaii,20.8329,-156.3415
Manele,HI,Hawaii,20.7419,-156.9012
Orchidlands Estates,HI,Hawaii,19.557,-155.0142
Kula,HI,Hawaii,20.7706,-156.3284
Royal Kunia,HI,Hawaii,21.4053,-158.0318
Makaha,HI,Hawaii,21.4735,-158.2103
Mililani Mauka,HI,Hawaii,21.4756,-157.9947
Mokuleia,HI,Hawaii,21.5775,-158.1487
Makena,HI,Hawaii,20.631,-156.4252
Waihee-Waiehu,HI,Hawaii,20.9188,-156.5063
Ocean Pointe,HI,Hawaii,21.3145,-158.0289
Waimanalo Beach,HI,Hawaii,21.3288,-157.6975
Holualoa,HI,Hawaii,19.6238,-155.9269
Olinda,HI,Hawaii,20.8261,-156.2917
Kalaoa,HI,Hawaii,19.7369,-156.0122
Kealakekua,HI,Hawaii,19.5286,-155.9033
Kalihiwai,HI,Hawaii,22.2165,-159.4405
Pepeekeo,HI,Hawaii,19.8316,-155.1061
Kailua,HI,Hawaii,21.392,-157.7396
Kaneohe,HI,Hawaii,21.4062,-157.7904
Napili-Honokowai,HI,Hawaii,20.9767,-156.6646
Wainaku,HI,Hawaii,19.7449,-155.0985
Hickam Housing,HI,Hawaii,21.3311,-157.9475
Hawaiian Acres,HI,Hawaii,19.5325,-155.0497
Laupahoehoe,HI,Hawaii,19.9749,-155.238
Wailuku,HI,Hawaii,20.8834,-156.5059
Waialua,HI,Hawaii,21.566,-158.1198
Leilani Estates,HI,Hawaii,19.4659,-154.9157
Halaula,HI,Hawaii,20.226,-155.7816
Poipu,HI,Hawaii,21.8834,-159.46
Lawai,HI,Hawaii,21.9203,-159.5006
Maili,HI,Hawaii,21.4134,-158.1702
Anahola,HI,Hawaii,22.1455,-159.3151
Waipio Acres,HI,Hawaii,21.4689,-158.0173
Iroquois Point,HI,Hawaii,21.3232,-157.9775
Wahiawa,HI,Hawaii,21.5004,-158.0198
Ainaloa,HI,Hawaii,19.5214,-154.9944
Lanai City,HI,Hawaii,20.8279,-156.9147
Maunawili,HI,Hawaii,21.3667,-157.7713
Mahinahina,HI,Hawaii,20.9539,-156.6565
Kilauea,HI,Hawaii,22.2108,-159.3964
Hanamaulu,HI,Hawaii,21.9954,-159.3493
Waikoloa Village,HI,Hawaii,19.9285,-155.8185
North Key Largo,FL,Florida,25.2574,-80.3242
Trenton,FL,Florida,29.6092,-82.8146
Wilton Manors,FL,Florida,26.1593,-80.1395
Chumuckla,FL,Florida,30.7826,-87.2309
Sanford,FL,Florida,28.7893,-81.276
Micanopy,FL,Florida,29.506,-82.2806
Tamarac,FL,Florida,26.2057,-80.2549
Asbury Lake,FL,Florida,30.0472,-81.7855
Wausau,FL,Florida,30.6332,-85.5874
Mary Esther,FL,Florida,30.4127,-86.6588
Timber Pines,FL,Florida,28.469,-82.5999
Surfside,FL,Florida,25.8787,-80.125
Waldo,FL,Florida,29.7925,-82.1663
Sawgrass,FL,Florida,30.19,-81.3704
Mims,FL,Florida,28.6928,-80.8468
Royal Palm Estates,FL,Florida,26.6815,-80.1265
Roeville,FL,Florida,30.6838,-86.994
Parkland,FL,Florida,26.3218,-80.2533
Oak Ridge,FL,Florida,28.4727,-81.4169
Fidelis,FL,Florida,30.9343,-87.0246
Niceville,FL,Florida,30.529,-86.4753
Crystal Springs,FL,Florida,28.183,-82.1539
Laurel Hill,FL,Florida,30.964,-86.4561
Munson,FL,Florida,30.8418,-86.887
High Point,FL,Florida,28.5474,-82.5206
Beacon Square,FL,Florida,28.2118,-82.7504
Ruskin,FL,Florida,27.7065,-82.4209
Olympia Heights,FL,Florida,25.7241,-80.339
Midway,FL,Florida,30.4992,-84.4582
Brownsville,FL,Florida,25.8216,-80.2417
Palm Beach Gardens,FL,Florida,26.8486,-80.166
Marianna,FL,Florida,30.7943,-85.226
Aucilla,FL,Florida,30.477,-83.7604
Heathrow,FL,Florida,28.7754,-81.3721
South Highpoint,FL,Florida,27.9087,-82.7162
Live Oak,FL,Florida,30.2956,-82.9847
West Vero Corridor,FL,Florida,27.6378,-80.4855
Fruitville,FL,Florida,27.3328,-82.4616
Pine Castle,FL,Florida,28.4651,-81.374
Progress Village,FL,Florida,27.8832,-82.3593
Panacea,FL,Florida,30.0282,-84.3936
Wewahitchka,FL,Florida,30.1148,-85.1935
Vamo,FL,Florida,27.2254,-82.4944
Tampa,FL,Florida,27.9942,-82.4451
Rio,FL,Florida,27.2161,-80.24
Laguna Beach,FL,Florida,30.2549,-85.9511
DeBary,FL,Florida,28.8815,-81.324
Cooper City,FL,Florida,26.0463,-80.2862
Inverness Highlands South,FL,Florida,28.8006,-82.3372
Myrtle Grove,FL,Florida,30.4158,-87.3028
Raleigh,FL,Florida,29.4479,-82.468
Lely Resort,FL,Florida,26.0889,-81.7031
Kenneth City,FL,Florida,27.8155,-82.7162
Campbellton,FL,Florida,30.9505,-85.4025
Center Hill,FL,Florida,28.6335,-81.9986
Nokomis,FL,Florida,27.1227,-82.437
West DeLand,FL,Florida,29.0162,-81.3343
Margate,FL,Florida,26.2466,-80.2119
Harlem,FL,Florida,26.7325,-80.9518
Lockhart,FL,Florida,28.6271,-81.4354
Venice Gardens,FL,Florida,27.0694,-82.4054
Plantation,FL,Florida,26.126,-80.2617
Lake Worth,FL,Florida,26.6195,-80.0591
Berrydale,FL,Florida,30.8982,-87.035
Hypoluxo,FL,Florida,26.5634,-80.0531
Lecanto,FL,Florida,28.8359,-82.488
Hernando,FL,Florida,28.9451,-82.3781
Glencoe,FL,Florida,28.9999,-80.9602
Buenaventura Lakes,FL,Florida,28.3349,-81.3539
Astor,FL,Florida,29.1635,-81.5349
Bartow,FL,Florida,27.8868,-81.8213
Suncoast Estates,FL,Florida,26.7123,-81.8684
Kensington Park,FL,Florida,27.3591,-82.4932
Coconut Creek,FL,Florida,26.2802,-80.1842
Sunny Isles Beach,FL,Florida,25.9385,-80.1246
Pensacola,FL,Florida,30.4427,-87.1886
Horseshoe Beach,FL,Florida,29.4498,-83.2819
Ponce de Leon,FL,Florida,30.7234,-85.9374
St. James City,FL,Florida,26.5507,-82.098
Fort Pierce South,FL,Florida,27.4096,-80.3538
Miami Gardens,FL,Florida,25.9433,-80.2426
Largo,FL,Florida,27.9088,-82.7712
Cabana Colony,FL,Florida,26.8554,-80.0864
Country Club,FL,Florida,25.9407,-80.3102
St. Augustine South,FL,Florida,29.8449,-81.3156
Lake Panasoffkee,FL,Florida,28.7878,-82.1318
Montverde,FL,Florida,28.5971,-81.6787
Ridge Wood Heights,FL,Florida,27.2874,-82.5137
Feather Sound,FL,Florida,27.9061,-82.6813
Gulfport,FL,Florida,27.7463,-82.71
Hollywood,FL,Florida,26.0294,-80.1679
South Palm Beach,FL,Florida,26.5899,-80.039
Geneva,FL,Florida,28.7377,-81.1143
Gulf Breeze,FL,Florida,30.3685,-87.1769
Kissimmee,FL,Florida,28.3042,-81.4164
Elfers,FL,Florida,28.214,-82.723
Princeton,FL,Florida,25.5396,-80.3971
Lake Lindsey,FL,Florida,28.6322,-82.3616
Medley,FL,Florida,25.8646,-80.3516
Lake Sarasota,FL,Florida,27.2916,-82.437
Esto,FL,Florida,30.9819,-85.6429
Manatee Road,FL,Florida,29.5147,-82.9186
Indian Creek,FL,Florida,25.8783,-80.137
Brandon,FL,Florida,27.9367,-82.3
Pebble Creek,FL,Florida,28.1583,-82.3411
North Miami Beach,FL,Florida,25.9302,-80.166
Lake Hart,FL,Florida,28.3851,-81.2322
Virginia Gardens,FL,Florida,25.8095,-80.2974
East Palatka,FL,Florida,29.6502,-81.5998
Shalimar,FL,Florida,30.4434,-86.5831
Sewall's Point,FL,Florida,27.197,-80.1982
Milton,FL,Florida,30.6286,-87.0522
Medulla,FL,Florida,27.957,-81.9866
The Hammocks,FL,Florida,25.67,-80.4483
Merritt Island,FL,Florida,28.3146,-80.6713
Silver Lake,FL,Florida,28.8436,-81.8009
Goulding,FL,Florida,30.4396,-87.23
Mulat,FL,Florida,30.5595,-87.1297
Steinhatchee,FL,Florida,29.6795,-83.3837
Franklin Park,FL,Florida,26.134,-80.1762
Tildenville,FL,Florida,28.5385,-81.6026
Ebro,FL,Florida,30.4369,-85.8791
Jasmine Estates,FL,Florida,28.293,-82.6907
Orlovista,FL,Florida,28.5441,-81.4629
Manasota Key,FL,Florida,26.9226,-82.3537
Waukeenah,FL,Florida,30.402,-83.96
Naples Park,FL,Florida,26.2633,-81.8094
McIntosh,FL,Florida,29.4494,-82.2211
Haverhill,FL,Florida,26.6909,-80.1217
Vernon,FL,Florida,30.6197,-85.7062
Doctor Phillips,FL,Florida,28.4476,-81.4922
Lighthouse Point,FL,Florida,26.2785,-80.0891
Bunnell,FL,Florida,29.4198,-81.3235
Apollo Beach,FL,Florida,27.7618,-82.4002
Fanning Springs,FL,Florida,29.5873,-82.9245
Williston Highlands,FL,Florida,29.3336,-82.5357
Lake Harbor,FL,Florida,26.6885,-80.8079
St. George Island,FL,Florida,29.652,-84.8881
Celebration,FL,Florida,28.3102,-81.551
Homeland,FL,Florida,27.8181,-81.8269
South Bay,FL,Florida,26.6784,-80.7269
New Port Richey,FL,Florida,28.2468,-82.7169
Black Hammock,FL,Florida,28.7107,-81.1801
Seville,FL,Florida,29.3364,-81.5065
Oakland Park,FL,Florida,26.178,-80.1528
Davenport,FL,Florida,28.1588,-81.6084
Poinciana,FL,Florida,28.1217,-81.482
Edgewater,FL,Florida,28.962,-80.9415
Briny Breezes,FL,Florida,26.5091,-80.0543
Windsor,FL,Florida,27.7869,-80.4141
Matlacha,FL,Florida,26.6304,-82.0719
Ocoee,FL,Florida,28.5787,-81.5337
Melbourne Beach,FL,Florida,28.0668,-80.561
Brooksville,FL,Florida,28.5405,-82.3903
Pine Island Center,FL,Florida,26.6352,-82.1253
De Leon Springs,FL,Florida,29.1172,-81.3517
Cape Canaveral,FL,Florida,28.3933,-80.605
South Apopka,FL,Florida,28.6569,-81.5056
Flagler Beach,FL,Florida,29.4714,-81.1302
Cross City,FL,Florida,29.6386,-83.1248
Campbell,FL,Florida,28.2603,-81.4525
Heritage Pines,FL,Florida,28.4267,-82.6254
Tavernier,FL,Florida,25.0188,-80.5132
Richmond Heights,FL,Florida,25.6347,-80.372
Gretna,FL,Florida,30.5901,-84.686
Wright,FL,Florida,30.4444,-86.642
Gladeview,FL,Florida,25.8395,-80.2368
Charlotte Park,FL,Florida,26.9031,-82.0486
Mayo,FL,Florida,30.0511,-83.1768
Bal Harbour,FL,Florida,25.8935,-80.1258
Lake Mystic,FL,Florida,30.3906,-84.9857
West Pensacola,FL,Florida,30.4263,-87.2679
Bonifay,FL,Florida,30.7826,-85.6845
Bay Harbor Islands,FL,Florida,25.8878,-80.1335
Orlando,FL,Florida,28.4772,-81.3369
St. Petersburg,FL,Florida,27.793,-82.6652
Cheval,FL,Florida,28.1459,-82.5185
Yeehaw Junction,FL,Florida,27.6993,-80.8871
Altoona,FL,Florida,28.9681,-81.6482
Captiva,FL,Florida,26.5205,-82.191
Taylor Creek,FL,Florida,27.2172,-80.7927
St. Pete Beach,FL,Florida,27.7235,-82.7387
Siesta Key,FL,Florida,27.2779,-82.5516
Titusville,FL,Florida,28.5727,-80.8193
Glenvar Heights,FL,Florida,25.709,-80.3156
Christmas,FL,Florida,28.5606,-81.0201
Lake Helen,FL,Florida,28.9828,-81.2306
Hallandale Beach,FL,Florida,25.9854,-80.1423
Naranja,FL,Florida,25.5164,-80.4221
Crestview,FL,Florida,30.7481,-86.5784
Ives Estates,FL,Florida,25.9632,-80.183
June Park,FL,Florida,28.0718,-80.6874
Point Baker,FL,Florida,30.6851,-87.0522
Port Salerno,FL,Florida,27.1461,-80.1895
Palatka,FL,Florida,29.6493,-81.6704
Ensley,FL,Florida,30.5261,-87.2735
Palm Beach,FL,Florida,26.6932,-80.0406
Crystal River,FL,Florida,28.8964,-82.5991
Daytona Beach,FL,Florida,29.1994,-81.0982
Palm Springs,FL,Florida,26.6349,-80.0968
Ponce Inlet,FL,Florida,29.0928,-80.9474
Buckingham,FL,Florida,26.6615,-81.7399
Holmes Beach,FL,Florida,27.5107,-82.7152
Palmetto,FL,Florida,27.5251,-82.5751
Fort Myers Shores,FL,Florida,26.7135,-81.7383
Jupiter,FL,Florida,26.9199,-80.1128
Fish Hawk,FL,Florida,27.8511,-82.2164
Highland Park,FL,Florida,27.8614,-81.5618
Miami Shores,FL,Florida,25.867,-80.1779
Riverview,FL,Florida,27.8227,-82.3023
Orchid,FL,Florida,27.7733,-80.4182
San Antonio,FL,Florida,28.3394,-82.2787
Auburndale,FL,Florida,28.0962,-81.8011
Solana,FL,Florida,26.9388,-82.0278
Viera East,FL,Florida,28.261,-80.715
Lake Hamilton,FL,Florida,28.0478,-81.627
Highland City,FL,Florida,27.9633,-81.8781
Fort Myers,FL,Florida,26.6195,-81.8303
Venice,FL,Florida,27.1164,-82.4135
Island Walk,FL,Florida,26.251,-81.711
Oakleaf Plantation,FL,Florida,30.1689,-81.8337
Union Park,FL,Florida,28.5645,-81.2354
Tavares,FL,Florida,28.7926,-81.7366
Zephyrhills,FL,Florida,28.2405,-82.1796
Plant City,FL,Florida,28.014,-82.1201
Harbour Heights,FL,Florida,26.9928,-82.0072
Lantana,FL,Florida,26.5834,-80.0564
Fort Myers Beach,FL,Florida,26.4323,-81.9167
South Sarasota,FL,Florida,27.2856,-82.5333
Caryville,FL,Florida,30.7753,-85.812
East Williston,FL,Florida,29.3883,-82.4165
Daytona Beach Shores,FL,Florida,29.1725,-80.981
Tequesta,FL,Florida,26.9618,-80.1011
Yankeetown,FL,Florida,29.0334,-82.7326
Acacia Villas,FL,Florida,26.6458,-80.1104
Paradise Heights,FL,Florida,28.6237,-81.5439
Wacissa,FL,Florida,30.3566,-83.9937
Grant-Valkaria,FL,Florida,27.9322,-80.5655
Egypt Lake-Leto,FL,Florida,28.0177,-82.5062
Southgate,FL,Florida,27.3082,-82.5096
South Miami Heights,FL,Florida,25.5886,-80.3862
Frostproof,FL,Florida,27.7494,-81.5252
The Villages,FL,Florida,28.9021,-81.9888
Arcadia,FL,Florida,27.2214,-81.8587
Istachatta,FL,Florida,28.6633,-82.2726
Ellenton,FL,Florida,27.5266,-82.5261
Immokalee,FL,Florida,26.4253,-81.4251
East Milton,FL,Florida,30.6175,-86.9636
Eustis,FL,Florida,28.856,-81.6781
Paxton,FL,Florida,30.9746,-86.3099
San Castle,FL,Florida,26.5651,-80.0611
Branford,FL,Florida,29.962,-82.9238
Cypress Lake,FL,Florida,26.5391,-81.9
Sharpes,FL,Florida,28.4368,-80.7555
Westwood Lakes,FL,Florida,25.7237,-80.3717
Westview,FL,Florida,25.8826,-80.2415
Wabasso,FL,Florida,27.7478,-80.4363
Ocean Ridge,FL,Florida,26.5287,-80.0499
Orange Park,FL,Florida,30.1706,-81.7041
Reddick,FL,Florida,29.3687,-82.1976
Osprey,FL,Florida,27.1914,-82.48
Winter Park,FL,Florida,28.5987,-81.3438
Webster,FL,Florida,28.6115,-82.0509
"Islamorada, Village of Islands",FL,Florida,24.9408,-80.6097
Altamonte Springs,FL,Florida,28.6615,-81.3953
Madeira Beach,FL,Florida,27.7985,-82.7887
East Lake-Orient Park,FL,Florida,27.9971,-82.3653
Callaway,FL,Florida,30.1346,-85.5572
Crawfordville,FL,Florida,30.1996,-84.3634
Belleview,FL,Florida,29.0611,-82.0565
Fruitland Park,FL,Florida,28.8601,-81.9191
Coleman,FL,Florida,28.8013,-82.0699
Springfield,FL,Florida,30.1713,-85.6089
St. Augustine Beach,FL,Florida,29.8414,-81.2713
Tierra Verde,FL,Florida,27.6684,-82.73
Dade City North,FL,Florida,28.3837,-82.1943
Lely,FL,Florida,26.1032,-81.7297
Fernandina Beach,FL,Florida,30.658,-81.4504
Azalea Park,FL,Florida,28.5474,-81.2956
Mango,FL,Florida,27.9915,-82.307
Fort Walton Beach,FL,Florida,30.4249,-86.6193
Belleair Shore,FL,Florida,27.9173,-82.8455
Spring Hill,FL,Florida,28.4797,-82.53
Bear Creek,FL,Florida,27.7542,-82.7285
Big Pine Key,FL,Florida,24.6893,-81.3676
Estero,FL,Florida,26.4277,-81.7951
Cobbtown,FL,Florida,30.8823,-87.1212
Wallace,FL,Florida,30.6746,-87.1996
Gulf Gate Estates,FL,Florida,27.2587,-82.5065
Mount Plymouth,FL,Florida,28.8024,-81.5351
Trilby,FL,Florida,28.4564,-82.194
South Venice,FL,Florida,27.0435,-82.4152
Cypress Quarters,FL,Florida,27.2479,-80.8115
Forest City,FL,Florida,28.6619,-81.4443
Eastpoint,FL,Florida,29.7548,-84.8693
Palm Beach Shores,FL,Florida,26.7774,-80.0368
Pine Hills,FL,Florida,28.5818,-81.4693
Marineland,FL,Florida,29.6656,-81.2138
Lehigh Acres,FL,Florida,26.612,-81.6388
Safety Harbor,FL,Florida,28.008,-82.6965
Oviedo,FL,Florida,28.658,-81.1872
Ridgecrest,FL,Florida,27.8952,-82.8064
Belle Glade,FL,Florida,26.6919,-80.6672
Sunrise,FL,Florida,26.1547,-80.2997
Gonzalez,FL,Florida,30.5822,-87.2906
Royal Palm Beach,FL,Florida,26.7038,-80.2241
Pea Ridge,FL,Florida,30.6029,-87.1022
Wauchula,FL,Florida,27.5469,-81.8103
Dunedin,FL,Florida,28.0329,-82.7863
Hialeah Gardens,FL,Florida,25.8878,-80.3569
Wahneta,FL,Florida,27.9574,-81.7288
Malabar,FL,Florida,27.9885,-80.5781
Ona,FL,Florida,27.483,-81.9098
Westlake,FL,Florida,26.7549,-80.2984
Pinellas Park,FL,Florida,27.8589,-82.7076
Lady Lake,FL,Florida,28.924,-81.93
Fisher Island,FL,Florida,25.7607,-80.1416
Palmetto Bay,FL,Florida,25.622,-80.3222
Florida Ridge,FL,Florida,27.5805,-80.3848
Eatonville,FL,Florida,28.6169,-81.3911
Hilliard,FL,Florida,30.6865,-81.9212
Fort Pierce,FL,Florida,27.4256,-80.343
Belleair Beach,FL,Florida,27.9242,-82.8358
Port Orange,FL,Florida,29.1084,-81.0137
Limestone Creek,FL,Florida,26.9433,-80.1408
Newberry,FL,Florida,29.6351,-82.6047
Greenwood,FL,Florida,30.8727,-85.1612
White Springs,FL,Florida,30.3317,-82.7562
Indialantic,FL,Florida,28.087,-80.57
Orange City,FL,Florida,28.9349,-81.2882
Marathon,FL,Florida,24.7262,-81.0376
Clearwater,FL,Florida,27.9788,-82.7624
Crescent Beach,FL,Florida,29.7357,-81.2414
Wedgefield,FL,Florida,28.4847,-81.0808
Port St. Joe,FL,Florida,29.8267,-85.3069
Valrico,FL,Florida,27.9193,-82.2293
Villas,FL,Florida,26.5505,-81.8678
Lynn Haven,FL,Florida,30.2362,-85.6387
Richmond West,FL,Florida,25.6105,-80.4297
Neptune Beach,FL,Florida,30.3165,-81.4118
Sunset,FL,Florida,25.7061,-80.353
Cortez,FL,Florida,27.4668,-82.6688
Madison,FL,Florida,30.4716,-83.413
Panama City Beach,FL,Florida,30.2369,-85.8774
Chuluota,FL,Florida,28.638,-81.1158
Aventura,FL,Florida,25.9565,-80.1372
Williston,FL,Florida,29.3734,-82.4578
Fuller Heights,FL,Florida,27.9226,-81.9978
North Bay Village,FL,Florida,25.8487,-80.1535
DeFuniak Springs,FL,Florida,30.7122,-86.1208
Greenbriar,FL,Florida,28.0112,-82.7523
Rockledge,FL,Florida,28.3201,-80.732
Key Biscayne,FL,Florida,25.6908,-80.1653
Homestead,FL,Florida,25.4665,-80.4472
Fountainebleau,FL,Florida,25.7723,-80.3458
Roosevelt Gardens,FL,Florida,26.1407,-80.1809
Dickerson City,FL,Florida,30.4826,-87.0651
Bithlo,FL,Florida,28.5644,-81.1074
Lake Belvedere Estates,FL,Florida,26.6888,-80.1371
Raiford,FL,Florida,30.0638,-82.239
Southeast Arcadia,FL,Florida,27.1862,-81.8521
Pretty Bayou,FL,Florida,30.1976,-85.6975
Juno Beach,FL,Florida,26.8754,-80.0589
Ocala,FL,Florida,29.178,-82.1511
North Port,FL,Florida,27.0577,-82.1975
Bay Lake,FL,Florida,28.3869,-81.5756
East Lake,FL,Florida,28.1205,-82.6868
Indian Shores,FL,Florida,27.8536,-82.8438
Stock Island,FL,Florida,24.5658,-81.7351
Hutchinson Island South,FL,Florida,27.3243,-80.2425
Cedar Grove,FL,Florida,30.1812,-85.6268
Miramar Beach,FL,Florida,30.3854,-86.3443
Nassau Village-Ratliff,FL,Florida,30.5109,-81.8088
East Bronson,FL,Florida,29.4593,-82.5905
Longboat Key,FL,Florida,27.3926,-82.6341
Sun City Center,FL,Florida,27.7149,-82.3569
Weeki Wachee Gardens,FL,Florida,28.5375,-82.6208
Golden Gate,FL,Florida,26.1844,-81.7031
San Carlos Park,FL,Florida,26.4765,-81.8193
Lake Mack-Forest Hills,FL,Florida,29.0006,-81.424
Riviera Beach,FL,Florida,26.7812,-80.0741
Odessa,FL,Florida,28.182,-82.553
Hillsboro Pines,FL,Florida,26.3253,-80.1947
West Park,FL,Florida,25.984,-80.1923
Avon Park,FL,Florida,27.5908,-81.5081
Zephyrhills West,FL,Florida,28.2312,-82.2052
Alva,FL,Florida,26.7188,-81.6269
Olga,FL,Florida,26.7113,-81.695
Keystone Heights,FL,Florida,29.7812,-82.034
South Bradenton,FL,Florida,27.4612,-82.5821
Sweetwater,FL,Florida,25.7786,-80.376
Destin,FL,Florida,30.395,-86.4701
Brownsdale,FL,Florida,30.8859,-87.2218
McGregor,FL,Florida,26.5611,-81.9134
Silver Springs Shores,FL,Florida,29.1031,-82.005
Lutz,FL,Florida,28.1396,-82.4467
Lake Magdalene,FL,Florida,28.0875,-82.4791
Alturas,FL,Florida,27.8419,-81.6952
Belleair,FL,Florida,27.9365,-82.8114
Bay Hill,FL,Florida,28.4558,-81.5122
Big Coppitt Key,FL,Florida,24.5915,-81.6574
Palm Bay,FL,Florida,27.955,-80.6628
Whitfield,FL,Florida,27.4116,-82.5659
Dover,FL,Florida,27.9927,-82.2198
Key Colony Beach,FL,Florida,24.7233,-81.0215
Horizon West,FL,Florida,28.4417,-81.6145
Hill 'n Dale,FL,Florida,28.519,-82.2918
Cottondale,FL,Florida,30.7891,-85.3643
Baldwin,FL,Florida,30.3051,-81.9744
Starke,FL,Florida,29.9474,-82.1129
Viera West,FL,Florida,28.243,-80.7368
Three Oaks,FL,Florida,26.4738,-81.796
Lemon Grove,FL,Florida,27.5765,-81.636
Apopka,FL,Florida,28.7013,-81.5303
Fleming Island,FL,Florida,30.0988,-81.7124
Ferndale,FL,Florida,28.622,-81.7014
Englewood,FL,Florida,26.9603,-82.3535
Grove City,FL,Florida,26.9071,-82.3258
Boulevard Gardens,FL,Florida,26.1252,-80.1822
Moore Haven,FL,Florida,26.8338,-81.0985
West Lealman,FL,Florida,27.8191,-82.7385
South Pasadena,FL,Florida,27.7526,-82.7394
Fort Green Springs,FL,Florida,27.5876,-81.9402
Pioneer,FL,Florida,26.7258,-81.219
Miami Lakes,FL,Florida,25.9125,-80.3214
North Miami,FL,Florida,25.9007,-80.1686
Cutler Bay,FL,Florida,25.5765,-80.3356
Jennings,FL,Florida,30.5968,-83.107
Lake Buena Vista,FL,Florida,28.379,-81.5262
Winter Haven,FL,Florida,28.0118,-81.7017
Vero Beach,FL,Florida,27.6463,-80.393
Haines City,FL,Florida,28.11,-81.6157
Punta Rassa,FL,Florida,26.5036,-81.9998
Jasper,FL,Florida,30.5064,-82.9541
Ormond-by-the-Sea,FL,Florida,29.3437,-81.0677
Southwest Ranches,FL,Florida,26.0477,-80.3752
Glen Ridge,FL,Florida,26.6715,-80.0753
Otter Creek,FL,Florida,29.3238,-82.7734
